NAME,CATEGORY,ADDRESS,LAT,LNG,ID,SCALE,EVENT,TIME_OF_DAY
Teatro Orione ora Ecoteatro,Theater,Via Fezzan 11,45.459072724003505,9.145780775217315,4d41cf1fbd53f04d480a5115,large,All,"Day, Evening"
Red's cess,Concert Hall,,45.464245,9.147996,4e3dde9745dd68e327403145,large,All,"Day, Evening"
Sotterranei Oscuri di Casa Gozzo,Lounge,Via Giuseppe Frua 21/6,45.46447494672292,9.147839845302427,4df3070218a88611c6bb2255,small,"dance, music, acting, magic,comedy","Evening, Night"
Accademia Di Teatroterapia Non Chiamateci Attori,Theater,Via Giovanni Battista Moroni 8,45.46557943509936,9.146488732751003,4dcd458b52b1f8915b78cc68,large,All,"Day, Evening"
la mia ora di yoga,General Entertainment,,45.468348790550806,9.148692151173979,4f15acfae4b0960d02fe2b1d,small,All,"Day, Evening, Night, LateNight"
The Tune,Music Venue,Via Frascati,45.46897894766995,9.145948584818035,4c92423d238c6dcb07e3c655,small,"Musical Theatre, Music","Day, Evening, Night, LateNight"
Teatro del buratto,Theater,Via Mosè Bianchi 84,45.47567227019042,9.145051384030452,4ebfddfc0e019a162ac92d67,large,All,"Day, Evening"
Bea Expo Festival,General Entertainment,Spazio Eventiquattro,45.47755,9.145829,50a63edde4b0451f155359d5,small,All,"Day, Evening, Night, LateNight"
The Mule #2,Lounge,Piazza Napoli 30/7,45.452847,9.151729,5831ee2688cfcc313b9871d8,small,"dance, music, acting, magic,comedy","Evening, Night"
Freesound Scuola di Musica,Music Venue,Via Washington 40,45.45472423944423,9.152980637453174,4f5a893fe4b0695cb957ca73,small,"Musical Theatre, Music","Day, Evening, Night, LateNight"
Arcadia Productions,Theater,via Vespri Siciliani 16,45.45361378455647,9.150428154632381,4c7cb4e92dc195212983bf77,large,All,"Day, Evening"
ludoteca cinofila,Lounge,Piazza Napoli 30/7,45.453128,9.151534,546e41ff498e95cfcd6ef93b,small,"dance, music, acting, magic,comedy","Evening, Night"
Circolo Culturale Shams,General Entertainment,Via Tobruk,45.457085,9.149581,506b0ddce4b0821d1300dcd7,small,All,"Day, Evening, Night, LateNight"
Shams,General Entertainment,"Via Tobruk, 20078 San Colombano al Lambro Milan",45.45637824153889,9.15207071013684,4f09cad2e4b0945c6c4e6424,small,All,"Day, Evening, Night, LateNight"
B&B Romolo Gessi,General Entertainment,,45.45679311387082,9.152732752450726,54023219498e97602cdab3dd,small,All,"Day, Evening, Night, LateNight"
Dea's,Comedy Club,,45.45599183856941,9.153184655992575,4fc52278e4b066035ce1cabf,small,Comedy,"Evening, Night"
Davoli's mansion,Nightclub,,45.4613,9.150368,4c8f72081992a1cd53bbe5fb,small,"dance, music, acting, magic,comedy","Evening, Night"
AlePalooza,Music Venue,via Luchino del Maino 12,45.460052133333335,9.1504167,4df3af77ae609e69dd9a8c2b,small,"Musical Theatre, Music","Day, Evening, Night, LateNight"
SilverMusic,General Entertainment,Via Roncaglia 27,45.459097238949134,9.151867469184278,4ee116afb8f7413830e87dad,small,All,"Day, Evening, Night, LateNight"
Tombino,Lounge,,45.46100883111768,9.153293042812049,4c45ef37f1d80f471579a23c,small,"dance, music, acting, magic,comedy","Evening, Night"
COACH Dj,General Entertainment,Via Roncaglia 27,45.459110026900355,9.151714999792665,4d7248dbff6ba35d69b46b8a,small,All,"Day, Evening, Night, LateNight"
Regi's Lounge,Lounge,Viale ergisto Bezzi 73,45.462112,9.148906,56abf9b4498eabc430d1883f,small,"dance, music, acting, magic,comedy","Evening, Night"
Artmouse,General Entertainment,,45.461984,9.152452,4ca3750c7f84224b6814c558,small,All,"Day, Evening, Night, LateNight"
Alessandra D. A.,General Entertainment,"Via Marghera, 43, 20149 Milano",45.46593271879587,9.152313994975902,4ebd27570aaf88633ba1c2c3,small,All,"Day, Evening, Night, LateNight"
Spazio Asti,General Entertainment,Via Asti 17,45.4661190155465,9.152641605790825,4bfe2e822b83b713cddca998,small,All,"Day, Evening, Night, LateNight"
"quiet, please!",General Entertainment,,45.46523738732335,9.15030377049686,4e64ff2ab0fb188e8ec86dc9,small,All,"Day, Evening, Night, LateNight"
NPJparty,General Entertainment,Via privata Asti,45.466259,9.15286,5086b368e4b040ea08806ae7,small,All,"Day, Evening, Night, LateNight"
Aragorn,Comedy Club,Via Vittoria Colonna 49,45.467533740730325,9.149744310022973,4f27ea7ee4b0b501745edeff,small,Comedy,"Evening, Night"
Riky In Console,Nightclub,,45.46807436602601,9.151333882228393,4f738c80e4b0a60ba5ecd5c2,small,"dance, music, acting, magic,comedy","Evening, Night"
Metiss ' Art,Dance Studio,"Via Angelo Morbelli, 7, 20149 Milano",45.471186984721896,9.14955110937112,4eb2d9432c5b5915ce1a8fd1,small,"Musical Theater, Dance, Music","Day, Evening, Night, LateNight"
ASD Spazio Capoeira Desequilibrio,General Entertainment,Via Correggio 55,45.46836327285021,9.14935842160838,4eee0c326c25c7f9d2af4f80,small,All,"Day, Evening, Night, LateNight"
MusicDrome,Nightclub,Via Pier Alberto Paravia 59,45.473303279519776,9.149766150878682,4b05887bf964a5206fc822e3,small,"dance, music, acting, magic,comedy","Evening, Night"
Tortona 37,Event Space,Via Tortona 37,45.449494969027896,9.15754045760948,4e1c0727e4cd1f7c5d7c6a0d,large,All,"Day, Evening, Night, LateNight"
Nokia Low Light Box,General Entertainment,,45.4505,9.158,516d8880498ef16ff2ff9d2f,small,All,"Day, Evening, Night, LateNight"
Gaussian Blur,Nightclub,,45.449648,9.157679,4f909762e4b0e026aa3b8954,small,"dance, music, acting, magic,comedy","Evening, Night"
Smartbox,General Entertainment,Via Tortona 37,45.450358,9.158142,5166eeede4b0507228da3a1d,small,All,"Day, Evening, Night, LateNight"
Peugeot 208 XY Purple Night Party,Nightclub,Alzaia Naviglio Grande 116,45.44815426390498,9.156975030987534,518d2f0c498eda07d01bdf81,small,"dance, music, acting, magic,comedy","Evening, Night"
University Equipe,Nightclub,Via pietrasanta 12,45.454169117056026,9.154290111026231,54259b64498e989838f6c307,small,"dance, music, acting, magic,comedy","Evening, Night"
younger’s in design,General Entertainment,via savona 55,45.45186729297399,9.156718254089355,51605c6ac84ca0b532ba550e,small,All,"Day, Evening, Night, LateNight"
Stella Marina,Comedy Club,,45.45354461669922,9.156147003173828,4fd51120e4b054c59a1323d8,small,Comedy,"Evening, Night"
Camera Fulci,General Entertainment,,45.45266897047941,9.154549990244897,4e6d101f45dd435bc1506d16,small,All,"Day, Evening, Night, LateNight"
Paradise Terrace,Lounge,,45.45175690399693,9.157917870850538,4c8c09c3ed3ab60c0e196421,small,"dance, music, acting, magic,comedy","Evening, Night"
Silver's Mansion,Nightclub,,45.457954,9.154691,532ccf99498e7588353034e3,small,"dance, music, acting, magic,comedy","Evening, Night"
Sailing Passion,General Entertainment,Via Foppa 49,45.45626120665205,9.15651551806545,4f40cb42e4b0102f0de4ce10,small,All,"Day, Evening, Night, LateNight"
Junk Food srl - Lost In Fashion.it,General Entertainment,Via V.Foppa 46,45.45653722499999,9.1568129,4bed70fcbac3c9b68743fee9,small,All,"Day, Evening, Night, LateNight"
caliri,General Entertainment,,45.45695495605469,9.156073570251465,4ffcd05de4b00fe5cb4167aa,small,All,"Day, Evening, Night, LateNight"
BeatStreet,Concert Hall,,45.45590951059371,9.15601767382422,4eb9b8676da17451dd956a64,large,All,"Day, Evening"
у Вали,Lounge,Piazza Bolivar,45.45542,9.153688,5675cf8d38fa07a24b7cf79b,small,"dance, music, acting, magic,comedy","Evening, Night"
La Tana 2,General Entertainment,,45.46018753754168,9.157611037857261,526ed2c911d2187d0537615f,small,All,"Day, Evening, Night, LateNight"
Mansarda Mari,Lounge,Via Egadi 10,45.46008790246464,9.157983864507258,506b0087e4b096123a1b3bfd,small,"dance, music, acting, magic,comedy","Evening, Night"
The Block,Residential Building (Apartment / Condo),Via Washington 52,45.46250642632675,9.154427761211053,50c12341e4b0661cb2c59f4b,small,All,"Day, Evening"
Teatro Caboto,Theater,via Sebastiano Caboto 2,45.46236246164635,9.156597026848582,4cb0bbd56c269521e6f3b7d9,large,All,"Day, Evening"
Free Sound,Music Venue,Via Washington 40,45.46329726066018,9.15498177797991,4c8e644aad70a143c94f890f,small,"Musical Theatre, Music","Day, Evening, Night, LateNight"
Art Dance,General Entertainment,Via Washington 16,45.4648336817996,9.155098833663635,525eeaf1498e03901b2ea896,small,All,"Day, Evening, Night, LateNight"
Teatro Nazionale,Theater,Piazza Piemonte 12,45.466735509424744,9.153980245804673,4bdd7c1d4ffaa593ab826ff7,large,All,"Day, Evening"
Mind Juggler Francesco Tesei,Theater,Piazza Piemonte Milano,45.466807,9.154552,52e809aa11d2b7c15daacf44,large,All,"Day, Evening"
Biglietteria Nazionale,Theater,,45.46669155942898,9.155311280959376,50c31571e4b0fe852d32767f,large,All,"Day, Evening"
Sala Wagner,Theater,Piazza Wagner 2,45.46820466765216,9.15662169456482,4dab345df7b145b370215c81,large,All,"Day, Evening"
Smooth Cafè,Lounge,Via Michelangelo Buonarroti 15,45.468429510635154,9.155282915989897,4ba90310f964a52070033ae3,small,"dance, music, acting, magic,comedy","Evening, Night"
Get Me Out,General Entertainment,Via Emanuele Filiberto,45.48523,9.157538,5766bfa3498e7a574ac122e0,small,All,"Day, Evening, Night, LateNight"
Teatro San Cipriano,Theater,Via Carlo D'Adda,45.44624,9.161331,4cf015fd7bf3b60ce760577f,large,All,"Day, Evening"
Massive Arts Studios,Concert Hall,Via Eugenio Villoresi 24,45.44667121217092,9.162956561967562,4de23782ae60e7f3abe99ed8,large,All,"Day, Evening"
Linguaggi Creativi,Theater,,45.4465909516467,9.162924671087584,4ec9133c0e6158ba006c53eb,large,All,"Day, Evening"
Malagher,Piano Bar,"Via Malaga, 6",45.44536,9.159379,4bd45cf5a8b3a5933c9c6b5f,small,"Musical Theater, Dance, Music, Magic","Evening, Night"
The Botanical Club,Lounge,Via Tortona 33,45.45133763685301,9.161408563660153,5772bab6498e45d5a647c213,small,"dance, music, acting, magic,comedy","Evening, Night"
Red Bull Party,Nightclub,Via Tortona,45.449953,9.161226,4f91d37be4b0c9a2aa1db300,small,"dance, music, acting, magic,comedy","Evening, Night"
T35,Nightclub,Via tortonax,45.45110104658888,9.160652193185202,4bd2384741b9ef3b8eaafde5,small,"dance, music, acting, magic,comedy","Evening, Night"
Area Relax @BM,General Entertainment,Via Tortona 37,45.450612,9.158587,52496239498e2e72bd7a6f96,small,All,"Day, Evening, Night, LateNight"
Alphabet,Nightclub,Alzaia Naviglio Grande 98,45.44944235887685,9.161711485018369,5286dabd11d253e6ba962bdf,small,"dance, music, acting, magic,comedy","Evening, Night"
eBayLiving,General Entertainment,Via Tortona 31,45.450986701221986,9.15936827659607,51631f7b8aca9531248a8bb4,small,All,"Day, Evening, Night, LateNight"
Moncler Gamme Bleu FW13 Show,General Entertainment,Via Tortona 58,45.451295286221246,9.160902500152588,50ed9366f31cdcd22aa24108,small,All,"Day, Evening, Night, LateNight"
Rocket,Rock Club,Alzaia Naviglio Grande 98,45.449430731181394,9.161466461843842,4b05887bf964a52073c822e3,small,"Musical Theatre, Music","Day, Evening, Night, LateNight"
Codice a Barre,Music Venue,98 Alzaia Naviglio Grande,45.44935502836186,9.161643896938978,4b05887af964a52046c822e3,small,"Musical Theatre, Music","Day, Evening, Night, LateNight"
Emporio 31,General Entertainment,Via Tortona 31,45.450915104882654,9.162802099486294,4f74c2b9e4b04f5d5cd17fcc,small,All,"Day, Evening, Night, LateNight"
Calcetto VML,General Entertainment,"Via Tortona, 37",45.450253,9.158367,4ced078c3b03f04d91de31dc,small,All,"Day, Evening, Night, LateNight"
Bobino Club,Cocktail Bar,Alzaia Naviglio Grande 116,45.44902138892366,9.159373590027998,4c41f2c7ce54e21ecedb0b1a,small,"dance, music, acting, magic,comedy","Evening, Night"
Fashion Parfumed Corner,General Entertainment,Via Tortona 54,45.451676,9.162944,4e7db8387ee671559aecb992,small,All,"Day, Evening, Night, LateNight"
Giovannoni Studio,Lounge,,45.453827,9.158897,5165f6b9e4b0ef70eacac737,small,"dance, music, acting, magic,comedy","Evening, Night"
Sfilata C'N'C Costume national- Castello Sforzesco,General Entertainment,,45.45157367062651,9.161005429834924,505c5948e4b035b64dc0f796,small,All,"Day, Evening, Night, LateNight"
Rocky Horror Picture Show,General Entertainment,,45.45262077131597,9.160216226939037,4d9f6b8e5dc7f04d62506e91,small,All,"Day, Evening, Night, LateNight"
Il Raduno Dei Distratti,General Entertainment,,45.451888,9.162981,51045785e4b0ad7f35ff40d9,small,All,"Day, Evening, Night, LateNight"
Aria Savona,General Entertainment,"Via savona, 43",45.453621,9.161947,4c016c5b58dbc9282b54ee6b,small,All,"Day, Evening, Night, LateNight"
L'Huffington Post Launch,General Entertainment,,45.453732,9.160966,5061f730e4b0597ff990367a,small,All,"Day, Evening, Night, LateNight"
Sapori Solari,Gastropub,Via Anguissola 5,45.45378036527518,9.158378340831316,4d78c963db7c548175ee35f2,small,"dance, music, acting, magic,comedy","Evening, Night"
Vertical Stage Session,Music Venue,Via Stendhal 30,45.452319,9.159932,4dab1c2e0437dccbd8155805,small,"Musical Theatre, Music","Day, Evening, Night, LateNight"
Circle,Lounge,"Via Stendhal, 36",45.45357790985788,9.159337817072217,4c29e93f9eb19521b0d12959,small,"dance, music, acting, magic,comedy","Evening, Night"
welcomehome,General Entertainment,Via Stendhal 36,45.45353696557036,9.160006091766565,57100886498ece022dbedfb1,small,All,"Day, Evening, Night, LateNight"
Foppa31,General Entertainment,,45.45706916015944,9.158908631212174,50bef4afe4b0fb901fc997c3,small,All,"Day, Evening, Night, LateNight"
Idio,Lounge,Via Foppa 24,45.45770804712703,9.160648463739888,4e8231978b81400d66718ef9,small,"dance, music, acting, magic,comedy","Evening, Night"
Biliardo Corso Colombo,General Entertainment,,45.4591004365176,9.161006421826782,4f68de84e4b0fef790124307,small,All,"Day, Evening, Night, LateNight"
Corso Del Lunedì,General Entertainment,,45.460863,9.16281,4e89688193ad855afd6a15a3,small,All,"Day, Evening, Night, LateNight"
L.E.S. Milano,General Entertainment,Piazza Sant'Agostino,45.46467528628875,9.162503243698694,4f155643e4b09e81dc862cff,small,All,"Day, Evening, Night, LateNight"
Circolo ricreativo Versaci,General Entertainment,Via Ercole Ferrario,45.46205426229458,9.16113965837954,5234beff11d2054cea295610,small,All,"Day, Evening, Night, LateNight"
desperate housewife,Comedy Club,,45.464228,9.161787,5315f80a11d208cb44d2c20e,small,Comedy,"Evening, Night"
Mini countryman party,Nightclub,Via Bergognone 34,45.465754881590534,9.161627725293584,4bc4e4eaf8219c74940eb810,small,"dance, music, acting, magic,comedy","Evening, Night"
Uramaki.tv,Rock Club,Webvideo Factory,45.46612328793038,9.158377779575527,4eca3aa80e6158ba01b7a25a,small,"Musical Theatre, Music","Day, Evening, Night, LateNight"
Mammamondo Milano,General Entertainment,Via Cimarosa 8,45.466619340594185,9.158413112588343,4fbca6bce4b0742d2e42d5bf,small,All,"Day, Evening, Night, LateNight"
mon métro,Comedy Club,,45.46690653713159,9.162869278911822,4e08cec3c65b5bf27798317d,small,Comedy,"Evening, Night"
ottavio's flat,Nightclub,Via Giovanni Rasori 9,45.467803,9.162329,569585e1498e725384bf75b4,small,"dance, music, acting, magic,comedy","Evening, Night"
Giostre di Largo Zandonai,General Entertainment,,45.470555555508305,9.15952797288024,50029045e4b0c123ddf9e191,small,All,"Day, Evening, Night, LateNight"
Legend Tour Harley,General Entertainment,,45.46834454549291,9.160065474191802,4dce5f86e4cd130e1664c09f,small,All,"Day, Evening, Night, LateNight"
chez tamburello,General Entertainment,via alberto da giussano 24,45.469809,9.162079,4dade5546a23e6c9347ee0f8,small,All,"Day, Evening, Night, LateNight"
Maratona Manzoni,Amphitheater,,45.47473,9.160308,57f7b06f498ea2b997362f5f,large,All,"Day, Evening"
Auditorium Leone XIII,Theater,,45.47393943904469,9.162967480010105,4d0d15028010548122891c96,large,All,"Day, Evening"
Terrace bbq,Comedy Club,,45.478399961887256,9.161865371423666,4e0f8c91b0fb59de67e17cba,small,Comedy,"Evening, Night"
Terrazzonello,Nightclub,,45.48132555775843,9.160056858747135,4eab5362991107f63c8fde34,small,"dance, music, acting, magic,comedy","Evening, Night"
Sequoia,Bar,Via giovanni Prati,45.478587,9.161378,4bdb4c2f2a3a0f473f57aeb6,small,"dance, music, acting, magic,comedy","Evening, Night"
Casa JPtaz,Concert Hall,,45.4826545715332,9.162620544433594,559eae6a498e7a2cd1cfe6d7,large,All,"Day, Evening"
Casa dell'informatico pazzo,General Entertainment,,45.48472622222222,9.159235944444443,54593681498e5e33a6666378,small,All,"Day, Evening, Night, LateNight"
Spazio Scopricoop,General Entertainment,,45.48307212173502,9.158985351820029,534d5949498e16359c4fd2fe,small,All,"Day, Evening, Night, LateNight"
55Milano,Lounge,"via Piero Della Francesca, 55",45.48587639025463,9.160411135320746,54baecb2498e16c0b9e59c4f,small,"dance, music, acting, magic,comedy","Evening, Night"
Chatulle,Italian Restaurant,"Via Piero della Francesca, 68",45.48616425198999,9.160310499735806,4c0566b2761ac9b6aa781f74,small,"dance, music, acting, magic,comedy","Day, Evening, Night, LateNight"
Villa Bambù,Lounge,Via Salvioni,45.48544628888514,9.16063350880496,4e05d97b14959022c88c10fb,small,"dance, music, acting, magic,comedy","Evening, Night"
Alle Volte Spazio,General Entertainment,Via Cenisio 62,45.487789154052734,9.160392761230469,524474e611d24615c621aacb,small,All,"Day, Evening, Night, LateNight"
Mr Brown's studios,General Entertainment,via Cenisio 62,45.488186,9.160086,4fa11bbee4b0e93e33d3a063,small,All,"Day, Evening, Night, LateNight"
Il Gattopardo Café,Nightclub,"Via Piero della Francesca, 47",45.48530784012917,9.161588245414665,4c69c94ccff29521353d1a5e,small,"dance, music, acting, magic,comedy","Evening, Night"
Linguaggi Creativi,Theater,Via Villoresi 26,45.44641145259358,9.165267338530635,4caa0365ae1eef3bdf7f3347,large,All,"Day, Evening"
Teatro LinguaggiCreativi,Theater,,45.44644241148478,9.163455920325745,50a8f82de4b0b2e8c02cb8a1,large,All,"Day, Evening"
SuperStudio Più,Art Gallery,Via Tortona 27,45.450819022598054,9.163484547702152,4ba7b7e4f964a520b4ac39e3,small,"dance, music, acting, magic,comedy","Day, Evening"
Spazio Bugatti 15,General Entertainment,Via Gaspare Bugatti 15,45.451270018600276,9.167252925870882,5065e09de4b0b68b5da28925,small,All,"Day, Evening, Night, LateNight"
Super Juice Bar Tortona,General Entertainment,,45.450494,9.163429,5168117ce4b08a51fbae4491,small,All,"Day, Evening, Night, LateNight"
Monsterland,General Entertainment,,45.44995746749896,9.164394392836327,5272cb3a11d25034fbea22df,small,All,"Day, Evening, Night, LateNight"
Via Bugatti 15,General Entertainment,,45.451257,9.167459,4f8dc117e4b013d9a584dd96,small,All,"Day, Evening, Night, LateNight"
The Magazzini,General Entertainment,,45.450573,9.16693,5168866ae4b031a6fbc91e49,small,All,"Day, Evening, Night, LateNight"
Magazzini di Porta Genova,General Entertainment,,45.450617607296834,9.167478068324321,4f74c798e4b0bb6ea26e97ce,small,All,"Day, Evening, Night, LateNight"
Cake Festival 2016,General Entertainment,,45.450782,9.163524,57fa6480498ea2b99c60192f,small,All,"Day, Evening, Night, LateNight"
Circo Delle Pulci,General Entertainment,Ex Magazzini Porta Genova,45.450539068568425,9.167021568953219,5262f88e498ee0f0a3f31b9e,small,All,"Day, Evening, Night, LateNight"
Temporary museum,General Entertainment,,45.451299,9.167164,4f91e3a1e4b079cca4933875,small,All,"Day, Evening, Night, LateNight"
Liquidambar,Lounge,,45.45265,9.167143,5777f32a498e189814efbd22,small,"dance, music, acting, magic,comedy","Evening, Night"
Terrazza Gancia,Lounge,Via Tortona 21,45.452858,9.166469,4c17c4651436a5934d558c75,small,"dance, music, acting, magic,comedy","Evening, Night"
Fotografica 12,General Entertainment,,45.45305700220837,9.165530941170498,50a3d332e4b06729d1186af7,small,All,"Day, Evening, Night, LateNight"
Carlsberg Drink Different,Nightclub,Via Bergognone 30,45.45401831153321,9.166674646206996,4ed81fc3d3e346be3196584c,small,"dance, music, acting, magic,comedy","Evening, Night"
McOttavio's,General Entertainment,,45.45425597008189,9.167074054574279,4eed20949adf257d6677a5f4,small,All,"Day, Evening, Night, LateNight"
rotonda di via bergognone,Nightclub,,45.452348,9.164491,552d6d03498ea54018f26788,small,"dance, music, acting, magic,comedy","Evening, Night"
Burlesque Award,General Entertainment,,45.453897,9.163767,4d6043345b276dcb778213c6,small,All,"Day, Evening, Night, LateNight"
Tortona 32,General Entertainment,Via Tortona 32,45.45279932381504,9.165502010666245,4c10a781b93cc9b68f1157e0,small,All,"Day, Evening, Night, LateNight"
Food Experience Mondadori,General Entertainment,Via TORTONA 15,45.45293896303574,9.167421126274123,51658db6e4b04d92cb664989,small,All,"Day, Evening, Night, LateNight"
Officina Creativa Ansaldo,General Entertainment,,45.45224613459573,9.163683015619078,4fdb61b6e4b034b3a94252db,small,All,"Day, Evening, Night, LateNight"
Superstudio13,Art Gallery,Via Forcella 13,45.45193670518244,9.167664689348928,4cd497a2b2a437047e727844,small,"dance, music, acting, magic,comedy","Day, Evening"
MACS - Mazda Contemporary Space,General Entertainment,"Via Forcella, 3",45.45284,9.166345,51669cb7e4b02c1af1a6bbd0,small,All,"Day, Evening, Night, LateNight"
Philips simply@home - Spazio Galvanotecnica Bugatti,General Entertainment,Via Gaspare Bugatti 7,45.452,9.167111,4d91da66521760fc7b401593,small,All,"Day, Evening, Night, LateNight"
L'attico Live,Nightclub,Via Tortona 21,45.452811,9.166426,531262c2498e6faeaccc8554,small,"dance, music, acting, magic,comedy","Evening, Night"
Established & Sons,Strip Club,Teatro versace,45.45370186085382,9.163113319102349,4da775c243a12d0c263a168a,small,"dance, music, acting, magic,comedy","Evening, Night"
Lavazza,General Entertainment,,45.453887,9.163067,516575aae4b0fd02d2a62cd2,small,All,"Day, Evening, Night, LateNight"
MINI Paceman Garage,General Entertainment,Via Tortona 20,45.45332297996148,9.166607389394501,5162fd42e4b02525e1d4e111,small,All,"Day, Evening, Night, LateNight"
"Ciclotte ""The Round Experience""",General Entertainment,Via Forcella 13,45.451757,9.167418,5165420fe4b003192e7b5730,small,All,"Day, Evening, Night, LateNight"
Heineken The Club,Nightclub,,45.45243516260238,9.166656198799773,4f8dc327e4b05cdaa129b532,small,"dance, music, acting, magic,comedy","Evening, Night"
Stefy Agenzy,General Entertainment,Via Savona,45.454613,9.166409,4f846acfe4b03e850be200d5,small,All,"Day, Evening, Night, LateNight"
Food&design,General Entertainment,,45.45340468743085,9.16724366918364,51655da1e4b06f9467d611d1,small,All,"Day, Evening, Night, LateNight"
We Love Glasses,Lounge,,45.453851,9.165369,4da9deab0cb6a89c6260afd1,small,"dance, music, acting, magic,comedy","Evening, Night"
Fuoribalcone,Music Venue,,45.45503686914547,9.166870925281417,4da9e9146a2303012f014fbe,small,"Musical Theatre, Music","Day, Evening, Night, LateNight"
The iron factory occupied by crazy people,General Entertainment,Via Savona 18,45.455609,9.167468,4c2b95dc2219c928f7d5a448,small,All,"Day, Evening, Night, LateNight"
UnlockMI,General Entertainment,,45.460105,9.16678,59c6c9a2237dee656b63d2a5,small,All,"Day, Evening, Night, LateNight"
Passo Carrabile Foppa 7,General Entertainment,Via Vincenzo Foppa 7,45.45877587581299,9.163809573969832,4e867444722e3aa906467f0b,small,All,"Day, Evening, Night, LateNight"
San Vittore Pub Restaurant,Other Nightlife,Viale Papiniano 16,45.460111602259666,9.166110291258455,4c46219f342c1b8d65b4b589,small,"dance, music, acting, magic,comedy","Evening, Night"
Sanvittore Ristorante Cocktail Bar & Lounge,Lounge,16,45.46112625583561,9.164426304231988,4d1b60ca6526a35d27100f16,small,"dance, music, acting, magic,comedy","Evening, Night"
Sedici:9,General Entertainment,"Via Coni Zugna, 5",45.460553,9.164848,5281f996498efeef7e76ad54,small,All,"Day, Evening, Night, LateNight"
studio asci,General Entertainment,,45.46477127075195,9.165491104125977,4f743497e4b0ae979ec9a1e9,small,All,"Day, Evening, Night, LateNight"
DomenicaAspasso,General Entertainment,,45.46274508727046,9.163729361062074,4ec8c077e300719916a17b7e,small,All,"Day, Evening, Night, LateNight"
emettp,Nightclub,Via Carso,45.465636,9.166313,582b45c1bda2d73834bb1b77,small,"dance, music, acting, magic,comedy","Evening, Night"
Emanuelandia,Nightclub,Casa Mia. Top secreta,45.465604,9.16641,508aa697e4b0c56e748a4876,small,"dance, music, acting, magic,comedy","Evening, Night"
Banaker,Nightclub,,45.465591,9.16635,506887f6e4b029886573dda2,small,"dance, music, acting, magic,comedy","Evening, Night"
Pinky's,General Entertainment,,45.46630101645657,9.163155555725098,4ee4d3efe5faffd731ff07c6,small,All,"Day, Evening, Night, LateNight"
Caserma CC Montebello,General Entertainment,,45.47480639794138,9.165328101753015,4f143283e4b0960d01800e3b,small,All,"Day, Evening, Night, LateNight"
Terrazza ISCM,Nightclub,Largo Quinto Alpini 1,45.47209407192385,9.166988398822417,4f6a24a8e4b04b16fd711b90,small,"dance, music, acting, magic,comedy","Evening, Night"
Largo Quinto Alpini - Milano,Road,,45.47179240480211,9.166867633878788,51ee8097498eff58246b8118,,All,"Day, Evening, Night, LateNight"
Villa Monti,Nightclub,,45.474731932564524,9.164411436534373,4e2b3a3518a80bb058572615,small,"dance, music, acting, magic,comedy","Evening, Night"
Baldini&Castoldi,General Entertainment,via Abbondio Sangiorgio 18,45.475898,9.166195,51f0e014498eeec0f7d4d02c,small,All,"Day, Evening, Night, LateNight"
Don't Movie Factory,Comedy Club,Via Zumbini 6,45.478969,9.163158,4e01c5bdd1647696f12445d2,small,Comedy,"Evening, Night"
fotofoto,General Entertainment,,45.48271942138672,9.164885520935059,4fac3709e4b017dfa51923ce,small,All,"Day, Evening, Night, LateNight"
Ateneo Moda,General Entertainment,Via Plinio 54,45.484587245731255,9.166655685356782,519cc16f498e7d16d022b442,small,All,"Day, Evening, Night, LateNight"
Mobsound Studios,Music Venue,"Via Privata Chieti, 10",45.48492484503191,9.163562209561126,4c42b9b8d7fad13a679f09da,small,"Musical Theatre, Music","Day, Evening, Night, LateNight"
Absolut Ice Bar,Nightclub,Piazza Gerusalemme 12,45.484756,9.167603999999983,50300d28e4b04d70beb4e8d7,small,"dance, music, acting, magic,comedy","Evening, Night"
Harmony Cafe,Lounge,,45.48591838964981,9.16321039334616,4fa6b491e4b02443379aebc0,small,"dance, music, acting, magic,comedy","Evening, Night"
Club Decó,Lounge,San Galdino,45.486468961149505,9.167426223515982,5713c772cd102e21f7fba589,small,"dance, music, acting, magic,comedy","Evening, Night"
Cubo Decò,Lounge,Via San Galdino 5,45.48666879276931,9.167154480034842,4bdc6757c79cc928c06086e9,small,"dance, music, acting, magic,comedy","Evening, Night"
Associazione Culturale Scimmie Nude,Comedy Club,"Piazza Giovanni Perego, 11",45.49036077491616,9.16788646424912,4c89e3301107b713f479843a,small,Comedy,"Evening, Night"
i tre travoni,Nightclub,via principe eugenio,45.48991976151829,9.164672203840677,4e712b2918381bc64b1dfa4b,small,"dance, music, acting, magic,comedy","Evening, Night"
Teatro Out Off,Theater,"Via Mac Mahon, 16",45.48933625256602,9.164373515361877,4bf5803b94b2a593f6aeabee,large,All,"Day, Evening"
Overdrive Studio,Concert Hall,Mc Mahon 14,45.489079544040514,9.164219047978156,4f2ebaace4b0bd78b825dff0,large,All,"Day, Evening"
Spoons Concert Hall,Concert Hall,via cucchiari,45.48928844524452,9.165669022616267,4dfef29f88779f08f9972b7f,large,All,"Day, Evening"
Music Production,Concert Hall,,45.44782901996216,9.16984899494534,4e03bede2271233b767b0f97,large,All,"Day, Evening"
Argelab,Jazz Club,Via Argelati 47,45.445841,9.168476,551464ff498e3ea7dd474dde,small,"Musical Theatre, Music","Day, Evening, Night, LateNight"
Indiana Production,General Entertainment,"via Argelati, 33",45.447838569998524,9.169740481530193,4c73bbca0e8cbfb7c1840bdb,small,All,"Day, Evening, Night, LateNight"
i-indiana,Office,"Via Argelati, 33",45.44779334967735,9.169669064354068,4c73a3d78efc37042ffe157d,small,"dance, music, acting, magic,comedy","Evening, Night"
Guangmei's,General Entertainment,,45.448328,9.172179,51bc099c498e55ee390150b3,small,All,"Day, Evening, Night, LateNight"
Soul Kitchen,Music Venue,"Via Casale, 7",45.451205,9.171223,4d3a024e0333a093ef4c5034,small,"Musical Theatre, Music","Day, Evening, Night, LateNight"
i Giovedí del Design: Alla Castiglioni,General Entertainment,Via Savona 11,45.45128194331065,9.171699039690488,4f187194e4b0f22afda70ae4,small,All,"Day, Evening, Night, LateNight"
Nel Posto Piu Trash Del Mondo,Nightclub,,45.450676,9.171595,5132a82de4b06242f648a567,small,"dance, music, acting, magic,comedy","Evening, Night"
Medoro,Lounge,,45.451115,9.171509,56fa5735498e8c9d108ffddb,small,"dance, music, acting, magic,comedy","Evening, Night"
Minimarket Milano,Nightclub,,45.45111649018389,9.171509228430098,4f652e3be4b0ce431de070d7,small,"dance, music, acting, magic,comedy","Evening, Night"
L'HUB textile work shop,General Entertainment,Ripa di porta Ticinese 69,45.45049265205444,9.169197098572708,4f23bb2be4b0b653a2d366b7,small,All,"Day, Evening, Night, LateNight"
Circo Delle Pulci,General Entertainment,Piscine Argelati,45.44943971779542,9.172147897908317,518f7f1e498e9c894f42f5f7,small,All,"Day, Evening, Night, LateNight"
jUICY,Nightclub,Alzaia Naviglio Grande 54,45.450427,9.171021,51784587e4b0ecd77da3d3c6,small,"dance, music, acting, magic,comedy","Evening, Night"
Lomi Lounge Bar,Lounge,,45.450727,9.170202,5ad8f6fe178a2a4d6b6c1bdf,small,"dance, music, acting, magic,comedy","Evening, Night"
WAL studio,General Entertainment,,45.453783,9.170676,57162792cd10e209049a2498,small,All,"Day, Evening, Night, LateNight"
Roll over Beethoven,Nightclub,Via Borsi 9/2,45.453672008801085,9.168915865011387,531bb661498ed1a93af497aa,small,"dance, music, acting, magic,comedy","Evening, Night"
Live Legend,Music Venue,,45.45290960039255,9.169508429179334,56c6c671498eb30d80afd004,small,"Musical Theatre, Music","Day, Evening, Night, LateNight"
L'ARTè,General Entertainment,"Bergognone, 7",45.453705,9.169006,4d8f645ed00a6ea898facd4f,small,All,"Day, Evening, Night, LateNight"
Officine,General Entertainment,,45.452551,9.172543,514e085ce4b0eeb9fe3f28e9,small,All,"Day, Evening, Night, LateNight"
Wrapspaces,General Entertainment,,45.453839,9.169124,4f8e9287e4b019b4976bfc30,small,All,"Day, Evening, Night, LateNight"
Laundry,Music Venue,"Via Vigevano, 20",45.4531141821513,9.172311574321537,4da4971c7ccc816e163d957b,small,"Musical Theatre, Music","Day, Evening, Night, LateNight"
Talent Almanack by RobilantAssociati,General Entertainment,via Vigevano 41,45.453101603568896,9.171438217163086,4fabe0f4121da90b7ede1c2a,small,All,"Day, Evening, Night, LateNight"
Dom Station,Lounge,Via Casale 3,45.45256991919094,9.170124576874374,4d79eea47418a143288bc35b,small,"dance, music, acting, magic,comedy","Evening, Night"
Milano 1909 Members Club,Lounge,Via Tortona 3,45.45373119462894,9.169034972171671,528a6c6011d2e4c3c59c2f62,small,"dance, music, acting, magic,comedy","Evening, Night"
Zona Tartina,Miscellaneous Shop,Via Voghera 4,45.454419,9.168729,4da9ba9a8154abafc29ab8c0,,,
Chivas Members Club,Lounge,,45.453768,9.168605,52939aed11d2a0abad351a0b,small,"dance, music, acting, magic,comedy","Evening, Night"
Terrazza 14,Lounge,Via Tortona 14,45.453828,9.1686,4e0b35f86284a62b5bbf0560,small,"dance, music, acting, magic,comedy","Evening, Night"
La Cueva,General Entertainment,Via Vigevano 2a,45.4529317705459,9.171891179285957,50f70303e4b0cdce571be752,small,All,"Day, Evening, Night, LateNight"
Blues Canal,Cocktail Bar,"Via Casale, 7",45.45154311854414,9.170756001700434,4b05887af964a52048c822e3,small,"dance, music, acting, magic,comedy","Evening, Night"
Jolly,Nightclub,,45.454092,9.170793,4ce4550cc850721eb194c28a,small,"dance, music, acting, magic,comedy","Evening, Night"
Music Togheter,Music Venue,,45.45383,9.171643,588c706cea1c0d436975fd9f,small,"Musical Theatre, Music","Day, Evening, Night, LateNight"
Dojo -Hara Yoga,General Entertainment,Via Savona 10,45.457347,9.168909,4cb8a701bac9370444d0de7c,small,All,"Day, Evening, Night, LateNight"
Narciso & Boccadoro,Lounge,Via Savona 12,45.455739231280525,9.168450128055213,51801d5fe4b003188a253947,small,"dance, music, acting, magic,comedy","Evening, Night"
Interior Design Cafè,Lounge,Via Arcangelo Ghisleri 1,45.45729628700265,9.170180391655382,561ec816498eb307015ff6c1,small,"dance, music, acting, magic,comedy","Evening, Night"
Lit de Chouchou,Nightclub,Via Savona 1B,45.45575075880717,9.170317845163263,50773be1e4b05f2fb7032778,small,"dance, music, acting, magic,comedy","Evening, Night"
Marangoni's party,Nightclub,Limelight,45.456076,9.169813,5165fe72e4b0baf4dfb9c3cd,small,"dance, music, acting, magic,comedy","Evening, Night"
Bubbles Studio,General Entertainment,,45.455936,9.168631,4f855b49e4b064ded77fb5df,small,All,"Day, Evening, Night, LateNight"
Papiniano Palace,Lounge,,45.457296249821,9.171214744037787,4fe88c49e4b0af2e683b9cf6,small,"dance, music, acting, magic,comedy","Evening, Night"
"Radio Dynamo ""ON AIR"" @ DesignLibrary Café",Radio Station,Via Savona 11,45.455269511620514,9.168468966574519,4ef3296fc512c31f1b892360,small,"dance, music, acting, magic,comedy","Day, Evening"
#plastiparty + Cecilia Cattoni Food Design,General Entertainment,via Savona 11,45.45545321026501,9.168508581938939,4f4e536fe4b0ef284c32b864,small,All,"Day, Evening, Night, LateNight"
Teatro Libero,Comedy Club,,45.45593023853582,9.16850086670392,4bed03006e8c20a144d46f61,small,Comedy,"Evening, Night"
i Giovedi del Design: Vitamina D,General Entertainment,Via Savona 11,45.455252,9.168372,4f0f16cce4b06654e48a7c5c,small,All,"Day, Evening, Night, LateNight"
Ciuccia Fuffa,General Entertainment,Via Savona 17,45.4551722118144,9.167864173650742,4df129cad1647076f63bf213,small,All,"Day, Evening, Night, LateNight"
Circolo Filoellenico,General Entertainment,,45.457595,9.171636,519bc1cb498e389000534275,small,All,"Day, Evening, Night, LateNight"
Bonac's,Lounge,Via Cesare Da Sesto 19,45.4583866310947,9.171706438064575,55603243498e1b698160f278,small,"dance, music, acting, magic,comedy","Evening, Night"
Les - Ufficio Tempo Libero,General Entertainment,,45.45860676666667,9.169889183333334,4ea157d902d529c11623ab46,small,All,"Day, Evening, Night, LateNight"
Agenzia Viaggi Numa Pompilio,Lounge,,45.459956,9.169674,51e85ff9498e426b9c830da6,small,"dance, music, acting, magic,comedy","Evening, Night"
Agenzia Viaggi,General Entertainment,,45.459968,9.169676,519a770f498eede654020d64,small,All,"Day, Evening, Night, LateNight"
Dedalo Teatro,Movie Theater,Via Ariberto 25,45.45936023378989,9.172277748584747,4e7c7159185088025bb30ee3,large,"dance, music, acting, magic,comedy","Evening, Night"
Narnia,Lounge,,45.463797,9.169002,516bf5a6e4b0169e225c55a1,small,"dance, music, acting, magic,comedy","Evening, Night"
Stanza N 5 SCALA 6 Corso,Lounge,,45.461772,9.169308,4f644df7e4b06561249f4880,small,"dance, music, acting, magic,comedy","Evening, Night"
Casa Korvelyte,Lounge,Via giambattista vico 12,45.463145,9.171146,4dc65fc745dd264552887d18,small,"dance, music, acting, magic,comedy","Evening, Night"
Teatro delle Marionette,Theater,3 Via Olivetani,45.46313,9.17015,4b058880f964a5201eca22e3,large,All,"Day, Evening"
Manchester,Music Venue,,45.4643546,9.169237,51463c50e4b02dd32db0555e,small,"Musical Theatre, Music","Day, Evening, Night, LateNight"
Spazio MiMat,General Entertainment,Via Morozzo Della Rocca 12,45.465171,9.168443,56ec2926498e6f886538043a,small,All,"Day, Evening, Night, LateNight"
Teatro San Carlo,Theater,via Morozzo dells Rocca 12,45.465153,9.168333,4cc99628786e4688f5f49409,large,All,"Day, Evening"
IMMPRONTA,Piano Bar,"Piazzale Baracca, 2",45.466071,9.169509,4c593eac67ac0f4716b3034c,small,"Musical Theater, Dance, Music, Magic","Evening, Night"
Centre Culturel Français,General Entertainment,Corso Magenta 63,45.465844,9.171812,4b058881f964a52042ca22e3,small,All,"Day, Evening, Night, LateNight"
Circolo Arci Magnolia,Music Venue,,45.4690954,9.1688154,57761f14498e0799f1c8407c,small,"Musical Theatre, Music","Day, Evening, Night, LateNight"
Circolo Anarchico Ponte Della Ghisolfa,Music Venue,,45.4690954,9.1688154,57931fd2498e9d6cd3ce23ae,small,"Musical Theatre, Music","Day, Evening, Night, LateNight"
Reggae Rock Festival Bussero,Music Venue,,45.4690954,9.1688154,576f8679498eb5f8a03708ce,small,"Musical Theatre, Music","Day, Evening, Night, LateNight"
Private Party Milano,Music Venue,,45.4690954,9.1688154,5b1e2957a87921002c2386f7,small,"Musical Theatre, Music","Day, Evening, Night, LateNight"
Ca' Bianca Café,Music Venue,,45.4690954,9.1688154,5ac3346f7269fe2798809834,small,"Musical Theatre, Music","Day, Evening, Night, LateNight"
Festa Della Magnolia,Music Venue,,45.4690954,9.1688154,57ac3116498ee8e345abb52f,small,"Musical Theatre, Music","Day, Evening, Night, LateNight"
"Arci Paz, Castano Primo",Music Venue,,45.4690954,9.1688154,587f1ba591680266c0169fa0,small,"Musical Theatre, Music","Day, Evening, Night, LateNight"
Kitsch Bar,Lounge,"Corso Sempione, 5",45.47691554100443,9.17082450762748,4bf6c817508c0f47e5d93c31,small,"dance, music, acting, magic,comedy","Evening, Night"
Midnightrun 3,General Entertainment,,45.47554720543905,9.172527065118972,51439eb6e4b0554c1d14032b,small,All,"Day, Evening, Night, LateNight"
Huggy Bear,Lounge,Corso Sempione 3,45.47648634193311,9.171412335601318,4be4769fd4f7c9b641302420,small,"dance, music, acting, magic,comedy","Evening, Night"
Le Voyage,Lounge,,45.477814,9.169702,564acd7c498e2a88152124e1,small,"dance, music, acting, magic,comedy","Evening, Night"
Pillow Fight,General Entertainment,,45.47539,9.172683,4f8990ebe4b0089de8fee979,small,All,"Day, Evening, Night, LateNight"
Shootersdream,General Entertainment,Via mameli,45.476336,9.171631,4da1f0a1b521224b7738ffed,small,All,"Day, Evening, Night, LateNight"
House Hunters Milano,Lounge,,45.476553,9.170538,544ee220498eefae2ea225dc,small,"dance, music, acting, magic,comedy","Evening, Night"
Cream Lounge,Lounge,"Corso Sempione, 5",45.47662738422819,9.171102709952219,4bf140316f8aa59345a5c23c,small,"dance, music, acting, magic,comedy","Evening, Night"
Presso - Kook Sharing,Event Space,"Via Paolo Sarpi, 60",45.481024673403546,9.170860530353705,515d3f3de4b08c3124a20a07,large,All,"Day, Evening, Night, LateNight"
La Chiesetta,Cocktail Bar,Via Paolo Lomazzo 12,45.481614997579534,9.172683707246648,4bb3a198a32876b0b1fc01fe,small,"dance, music, acting, magic,comedy","Evening, Night"
Cipensoio,General Entertainment,,45.481574,9.171303,5148d4e3e4b0d085a2d450dc,small,All,"Day, Evening, Night, LateNight"
Jazz Café,Lounge,,45.47858741034733,9.168077677274939,51004f4ce4b055a6ffc970a3,small,"dance, music, acting, magic,comedy","Evening, Night"
occupy bernardo,Comedy Club,,45.481666564941406,9.171605110168457,4fa25fabe4b0c2f1031fa3c6,small,Comedy,"Evening, Night"
Spazio Il Fischio,General Entertainment,Via Procaccini,45.480709,9.17206,4bf18c1d78cec9281d88ba86,small,All,"Day, Evening, Night, LateNight"
Best Sound,Music Venue,Via bertini 13,45.48234370838027,9.17116568382805,4c971ee238dd8cfaf1fde062,small,"Musical Theatre, Music","Day, Evening, Night, LateNight"
Sony Entertainment Redefined @Milano,Electronics Store,Via Procaccini 37,45.482973,9.170201,4d75ec110e3f6a31f1242f66,,,
Milano Lounge Cafè,Cocktail Bar,Via Giulio Cesare Procaccini 37,45.4828767409056,9.170211284095616,4bd764c20b779c74821205a0,small,"dance, music, acting, magic,comedy","Evening, Night"
Caffè Caribe,Nightclub,17 Via Giulio Cesare Procaccini,45.483815516816016,9.172002540482998,4b05887af964a52060c822e3,small,"dance, music, acting, magic,comedy","Evening, Night"
capodanno cinese,General Entertainment,Piazza Gramsci,45.481927,9.168349,56c08484cd10904e69e0a0e4,small,All,"Day, Evening, Night, LateNight"
Gaia Gaudenzi,General Entertainment,,45.48256427026095,9.169987995879502,522dedd211d234f15533c7be,small,All,"Day, Evening, Night, LateNight"
Musicopoli,General Entertainment,"Via Monviso, 10",45.484379480193056,9.16883890030129,4e7deb79f5b93371fce48a48,small,All,"Day, Evening, Night, LateNight"
Suonificio - Studio Registrazione Audio,General Entertainment,,45.486953,9.169123,4d9c38efb2bd3704980e114b,small,All,"Day, Evening, Night, LateNight"
Residenza Di Maestro,Rock Club,,45.490515,9.172248,506d6b19e4b0a3f3b2e91843,small,"Musical Theatre, Music","Day, Evening, Night, LateNight"
Scimmie Nude,Comedy Club,,45.489754,9.16974,51cded35498e9830f16ff1ef,small,Comedy,"Evening, Night"
Zucchi Studio,General Entertainment,,45.48988075087152,9.168721058291698,4fad81d8e4b09c3c72990bd9,small,All,"Day, Evening, Night, LateNight"
Circolo Dei Malfattori,Lounge,,45.44430222914082,9.17628559726345,50ce0d1fe4b0d870d83857d0,small,"dance, music, acting, magic,comedy","Evening, Night"
laboratorio teatrale Anime Antiche,Theater,via Ascanio Sforza 81A,45.44267272949219,9.17592716217041,51ab8abf498ec578b05785c0,large,All,"Day, Evening"
Chantilly HQ,General Entertainment,Via Lecchi 16,45.444303291933444,9.173115600397239,50b41f1ee4b03acff4dea896,small,All,"Day, Evening, Night, LateNight"
PuertoAlegre,Nightclub,Via Borsi 9,45.443251174141366,9.176044199343892,4f91dcf5e4b023d6c76a6ace,small,"dance, music, acting, magic,comedy","Evening, Night"
Monodynamic Studio,Music Venue,Via De Sanctis 12,45.442712,9.173124,4cb81b1bdd41a35d1514d8a0,small,"Musical Theatre, Music","Day, Evening, Night, LateNight"
Salon Parisien,Nightclub,"via Ascanio Sforza, 84",45.44185822273071,9.176059137373537,4d4499b159ca2d4352fb1d0f,small,"dance, music, acting, magic,comedy","Evening, Night"
Connie Douglas,Lounge,Via Bordighera 15,45.441784837372005,9.173799446266251,4b058879f964a5201dc822e3,small,"dance, music, acting, magic,comedy","Evening, Night"
Casa della musica,Nightclub,Via Ascanio Sforza 81,45.441872418798155,9.175835893054478,4cb0eeccc5e6a1cd85aad9f6,small,"dance, music, acting, magic,comedy","Evening, Night"
Scuola Di Teatro Anime Antiche,Comedy Club,Via Ascanio Sforza 81/a,45.442200115220075,9.176977874101354,4dea9d8252b11677f0410dc7,small,Comedy,"Evening, Night"
Cox 18,Music Venue,,45.4457349,9.17694,56f247ec498e93a37ea8d380,small,"Musical Theatre, Music","Day, Evening, Night, LateNight"
Apollo Club,Lounge,"Via Giosuè Borsi, 9",45.44747772835594,9.174558567488095,57e19d3b498efc11824bbcf8,small,"dance, music, acting, magic,comedy","Evening, Night"
Circolo Mamozzo,Lounge,Via Darwin,45.44548797607422,9.175674438476562,5255523411d2fe86afea6297,small,"dance, music, acting, magic,comedy","Evening, Night"
Sacrestia - Farmacia Alcolica,Cocktail Bar,Via Conchetta 20,45.445680765773496,9.17666411115219,4b587e69f964a520795a28e3,small,"dance, music, acting, magic,comedy","Evening, Night"
Casa Matilda,Lounge,,45.444872,9.176792,5a4567424acb1973fb641128,small,"dance, music, acting, magic,comedy","Evening, Night"
Il Torchietto,Italian Restaurant,"Via ascanio sforza, 47",45.44719535067364,9.176929917020859,4d7fbf48564b8cfa2cbe0b65,small,"dance, music, acting, magic,comedy","Day, Evening, Night, LateNight"
Tumbao,Nightclub,,45.444788,9.176136,517ae615e4b0189bde62103c,small,"dance, music, acting, magic,comedy","Evening, Night"
Cosebelle Magazine 1st Bday Party,General Entertainment,Via Conchetta 20,45.44572358858592,9.176648281660727,4ef39f4549010be35d82a87a,small,All,"Day, Evening, Night, LateNight"
Chiarezza,General Entertainment,,45.444999,9.174187,4bc4a1242a89ef3b618ff688,small,All,"Day, Evening, Night, LateNight"
Planet 50,Nightclub,52 Alzaia Naviglio Pavese,45.446478134959285,9.176440902120612,4b05887af964a52050c822e3,small,"dance, music, acting, magic,comedy","Evening, Night"
Nidaba Theatre,Rock Club,via Gola 12,45.44899736225653,9.17562290358741,4b4e012ef964a520cfdd26e3,small,"Musical Theatre, Music","Day, Evening, Night, LateNight"
Sixth Sense,Nightclub,4 Via Emilio Gola,45.44896,9.176633,596e997659fe5c3ad7240284,small,"dance, music, acting, magic,comedy","Evening, Night"
Capitano,Lounge,Via Alzaia Naviglio Pavese 31,45.44898,9.177379,5b1420785a2c91002cab8da1,small,"dance, music, acting, magic,comedy","Evening, Night"
game over,Nightclub,,45.44846725463867,9.17313289642334,5051094ce4b0c32d8c4658a1,small,"dance, music, acting, magic,comedy","Evening, Night"
TeatroCinque,Theater,"Via Ascanio Sforza, 37",45.448678,9.177416,51685a59498e48080381b8d7,large,All,"Day, Evening"
MoneyOnTheFloor,Nightclub,,45.45016,9.174624,53223502498e2362a047689a,small,"dance, music, acting, magic,comedy","Evening, Night"
Folk Enotecheria,Music Venue,,45.4497048,9.1744454,57109a74498e1b1f9b07b8e6,small,"Musical Theatre, Music","Day, Evening, Night, LateNight"
Lovedom Headquarters,General Entertainment,,45.4511149969213,9.173537398466449,55b3528a498ef7058e48bf14,small,All,"Day, Evening, Night, LateNight"
#cookebook,General Entertainment,Alzaia Naviglio Pavese 16,45.44997942550607,9.17742450380588,528df010498ea4889bda4238,small,All,"Day, Evening, Night, LateNight"
El Sitio,Nightclub,Via Corsico 3,45.45218442399078,9.173592767971812,4ef2571cb8f7f381f6d4085e,small,"dance, music, acting, magic,comedy","Evening, Night"
La Cueva (no art gallery),Music Venue,"Via Vigevano, 2/A",45.452723,9.175522,51704b0b498e41309a78a089,small,"Musical Theatre, Music","Day, Evening, Night, LateNight"
Bruttoposse,Nightclub,,45.452536,9.175727,532231de498e4d362acba50e,small,"dance, music, acting, magic,comedy","Evening, Night"
Brandstorming temporary store,General Entertainment,Via corsico 3,45.45244,9.1733502,4c14e3cd77cea593f93bd160,small,All,"Day, Evening, Night, LateNight"
Elicriso,General Entertainment,,45.452846,9.175549,5166038be4b0cdde31829f1b,small,All,"Day, Evening, Night, LateNight"
Nastro Say Yes Milano,Performing Arts Venue,Via Corsico 3,45.45232736554829,9.173442958517835,4f91af7be4b09347d9c48142,large,All,"Day, Evening, Night, LateNight"
Casetta del Naviglio,Lounge,,45.451421729924895,9.173240519390722,4e7514341838f91889b10697,small,"dance, music, acting, magic,comedy","Evening, Night"
Souare garden,Lounge,,45.451724,9.17441,567dc115498e0671d9ff0567,small,"dance, music, acting, magic,comedy","Evening, Night"
Sofa Cafe,Cocktail Bar,Ripa di Porta Ticinese 7,45.45203287279338,9.176716804504393,4f5aa1c9e4b086681a5e5149,small,"dance, music, acting, magic,comedy","Evening, Night"
Loft54fd'c,Lounge,Viale Gorizia,45.453984,9.174822,57ab5b8e498e2efa279e7d04,small,"dance, music, acting, magic,comedy","Evening, Night"
The Do-Over by adidas Originals,General Entertainment,Ripa di Porta Ticinese 21,45.451394,9.175296,4e7f19da775b63f7d78c56f6,small,All,"Day, Evening, Night, LateNight"
iNStradaMI,General Entertainment,via Corsico,45.452252588106,9.1734559295828,52627bd411d280760e47fdbc,small,All,"Day, Evening, Night, LateNight"
Elitabar h17-02,Cocktail Bar,Via Corsico 5,45.452050513878916,9.17356185373306,5231eabf498ea763602c877f,small,"dance, music, acting, magic,comedy","Evening, Night"
Acerrá,Nightclub,,45.452297,9.173316,4fb5137de4b06fa0ebef3f03,small,"dance, music, acting, magic,comedy","Evening, Night"
Zog Live,Performing Arts Venue,"Ripa di Porta Ticinese, 37",45.45162499068305,9.173931119653506,4cf188bbc9af6dcbf54d9a7f,large,All,"Day, Evening, Night, LateNight"
Square Garden,Lounge,Naviglio Grande,45.451603651063884,9.1740873545244,5686fd72498e927bced269b4,small,"dance, music, acting, magic,comedy","Evening, Night"
English Conversations,General Entertainment,,45.453945,9.176542,4e835e4730f88fdf8695aac0,small,All,"Day, Evening, Night, LateNight"
Party Room Di Massimino Dei Navigli,General Entertainment,"Ripa di Porta Ticinese,21",45.45188299015115,9.17472908881025,4e3517b28877beb5e9a8302b,small,All,"Day, Evening, Night, LateNight"
Installazione Hana,General Entertainment,Via Corsico 3,45.452259,9.173421,4f8f370de4b068786bdc8d75,small,All,"Day, Evening, Night, LateNight"
¡Más!,Cocktail Bar,Ripa di Porta Ticinese 11,45.452072712429356,9.176382065620022,4b914379f964a52030ae33e3,small,"dance, music, acting, magic,comedy","Evening, Night"
Rimmel CAB,General Entertainment,,45.45275768672718,9.175352401650112,51645289e4b0b66afe34a83b,small,All,"Day, Evening, Night, LateNight"
MINI Living,General Entertainment,Via Vigevano 18,45.453469459007906,9.173081805494467,570cad1d498eb3e29428dcb8,small,All,"Day, Evening, Night, LateNight"
Le Biciclette,Cocktail Bar,"Via Gian Battista Torti, 2",45.45788906111602,9.177355389972275,4b058879f964a52022c822e3,small,"dance, music, acting, magic,comedy","Evening, Night"
Teatro Ariberto,General Entertainment,Via Daniele Crespi 9,45.4573584,9.1742627,4b058880f964a5201dca22e3,small,All,"Day, Evening, Night, LateNight"
Circolo Arci Cicco Simonetta,Comedy Club,Via Cicco Simonetta 16,45.456289101686004,9.175637272548137,4c991346d4b1b1f7258fc435,small,Comedy,"Evening, Night"
Manatí,General Entertainment,Via Alessi 2,45.456014,9.176784,574cb09acd10c941118528bf,small,All,"Day, Evening, Night, LateNight"
Revolver,Cocktail Bar,Piazzale Cantore 3,45.455616750340816,9.174089895177636,4bb512952ea195210df2a92f,small,"dance, music, acting, magic,comedy","Evening, Night"
Germi - Luogo di Contaminazione,Social Club,Via Cicco Simonetta 14/16,45.456431,9.175749,5d9cb6b35f00890007190a93,small,All,"Evening, Night"
Numaplayground,General Entertainment,,45.457843,9.176673,5134c3bee4b04f7751c28fe1,small,All,"Day, Evening, Night, LateNight"
LabArca,Theater,"Via Marco d'Oggiono, 1",45.45711,9.175691,59c413ac2079556b58a5e2ed,large,All,"Day, Evening"
The Terrace M3C,General Entertainment,Via Cesare da Sesto 14,45.457491,9.172837,5169ba42e4b0aeffb6659102,small,All,"Day, Evening, Night, LateNight"
Metropolis recording studio,General Entertainment,,45.455653,9.17738,4faa7f9ee4b04f8c94365fa3,small,All,"Day, Evening, Night, LateNight"
Mind Puzzle,General Entertainment,Via Lanzone 31,45.45985667500865,9.174253703245355,55d64206498edb650daef636,small,All,"Day, Evening, Night, LateNight"
Le Suite,Lounge,Via Carroccio,45.46062093667758,9.173700914734633,4c4028db3735be9a086b16a4,small,"dance, music, acting, magic,comedy","Evening, Night"
Grey's Room,Nightclub,Via Carducci 35,45.46381090356627,9.174710217617992,54309e42498ed6ec05400060,small,"dance, music, acting, magic,comedy","Evening, Night"
Bar Enni - Caffè Caribe,Lounge,,45.463984,9.173035,50f9b46be4b0d5fdfb53c7dc,small,"dance, music, acting, magic,comedy","Evening, Night"
Change Performing Arts,Performing Arts Venue,Via vincenzo monti 12,45.467307,9.174822,4c973668533aa0939cd7d745,large,All,"Day, Evening, Night, LateNight"
Porto Di Mare Laursen,General Entertainment,,45.465623135796584,9.175405113440627,4f0dfbe9e4b08f6698eeadcb,small,All,"Day, Evening, Night, LateNight"
Orchestrina allegra,Concert Hall,Piazza Luigi Cadorna,45.47053113163619,9.174517528590684,51078984e4b068357c0b3d44,large,All,"Day, Evening"
La Triennale di Milano,Art Museum,Viale Emilio Alemagna 6,45.4722426198106,9.173506680837344,4b05887df964a52057c922e3,large,"dance, music, acting, magic,comedy","Day, Evening"
Bar Bianco,Cocktail Bar,"Viale Enrico Ibsen, 4",45.47354632553537,9.177277288624811,4bf2c4adaf659c74ae09d847,small,"dance, music, acting, magic,comedy","Evening, Night"
Old Fashion,Nightclub,"Viale Emilio Alemagna, 6",45.472947263204766,9.173743662333404,4b05887af964a52027c822e3,small,"dance, music, acting, magic,comedy","Evening, Night"
Teatro Continuo,Theater,,45.473294,9.175267,5d42d3b661c17f00080e1c13,large,All,"Day, Evening"
Cavalli Club Milano,Nightclub,Via Luigi Camoens,45.47340272921152,9.173201305895475,4b058879f964a52002c822e3,small,"dance, music, acting, magic,comedy","Evening, Night"
Club Haus 80's,Lounge,Parco Sempione,45.47353614863018,9.177434218916838,4dd02683d4c065592fa934a6,small,"dance, music, acting, magic,comedy","Evening, Night"
Just Cavalli Cafè,Lounge,,45.47330509718145,9.173080847214102,536e0476498e4e19faaff737,small,"dance, music, acting, magic,comedy","Evening, Night"
Nesquik 40,General Entertainment,,45.47318888937812,9.17291622303752,4e918b29d3e3187fc35190c0,small,All,"Day, Evening, Night, LateNight"
Camparitivo in Triennale,Café,"Triennale di Milano, Viale Emilio Alemagna, 6",45.47252692417562,9.17458518672356,4bdc3965c79cc928ac9c85e9,small,"dance, music, acting, magic,comedy","Day, Evening, Night, LateNight"
Popstarz,Nightclub,,45.47300127470845,9.1740123202795,4f99dc1ee4b0c1fd75314d8b,small,"dance, music, acting, magic,comedy","Evening, Night"
Byblos Fashion Show,General Entertainment,Castello sforzesco,45.47314561844162,9.176539323880021,4f4a3cdde4b082dc5829523a,small,All,"Day, Evening, Night, LateNight"
Teatro dell'Arte,Theater,Viale Alemagna 6,45.4721697741884,9.173884391784668,4bfacdea328d76b03dfc14ec,large,All,"Day, Evening"
Il Club delle Mamme,Building,"Via Canonica, 20",45.47809058094997,9.175955057144165,4eb2621e4fc61d1983242475,small,"dance, music, acting, magic,comedy","Day, Evening, Night, LateNight"
D.Work,Piano Bar,,45.481088,9.173313,5d752dca6c160b00082b008a,small,"Musical Theater, Dance, Music, Magic","Evening, Night"
Studio Area 22,General Entertainment,Via giusti 22,45.48023789960255,9.176123919545121,4df373fc7d8b18e1722ee3b9,small,All,"Day, Evening, Night, LateNight"
米兰之夜ktv,Nightclub,via signorelli 2,45.481402,9.173831,58496a3bca10700aaeddb8ea,small,"dance, music, acting, magic,comedy","Evening, Night"
Circolo Alessandro Volta,General Entertainment,Via Giusti 16,45.480231850530984,9.177003707191307,4cae132dd1f8b60c997474c6,small,All,"Day, Evening, Night, LateNight"
StudioArea22,General Entertainment,"Via Giusti, 22",45.480140551435106,9.17646785720062,51aa4b9b498e1786d0476091,small,All,"Day, Evening, Night, LateNight"
Centro Yoga,General Entertainment,,45.48064370675906,9.174451305624387,4da7f20843a12d0c26457eb3,small,All,"Day, Evening, Night, LateNight"
Melros Production,General Entertainment,Via Paolo Sarpi 21,45.481085,9.17659,4cdbc4d34006a1431865dab2,small,All,"Day, Evening, Night, LateNight"
Radio Kiss Kiss,Radio Station,Via Aleardo Aleardi 14,45.48257734861587,9.173733203807767,4f5770afe4b0720e069e173f,small,"dance, music, acting, magic,comedy","Day, Evening"
L'Aperitivo del Milanese Imbruttito,Nightclub,Via Procaccini 4,45.48269,9.176743,5167241ae4b0b6acd58fd744,small,"dance, music, acting, magic,comedy","Evening, Night"
Accademia del Gioco Dimenticato,General Entertainment,,45.484346,9.17565,52d15fc3498eb608a1b2f073,small,All,"Day, Evening, Night, LateNight"
360 Fx,General Entertainment,via Signorelli 4,45.48184311216355,9.173492135830768,4cda6e3f958f236aedc1a603,small,All,"Day, Evening, Night, LateNight"
Cattedrale Fabbrica Del Vapore,Rock Club,,45.48397073788449,9.175633847597288,4d8d06806174a0932933a7e3,small,"Musical Theatre, Music","Day, Evening, Night, LateNight"
Il Tram della Cesira,Nightclub,,45.48491668701172,9.17477607727051,50687cf8e4b0058e9da242a9,small,"dance, music, acting, magic,comedy","Evening, Night"
Byblos Milano,Nightclub,"via Messina, 38",45.486269186448986,9.173948138383949,505b653ce4b04971505b25d6,small,"dance, music, acting, magic,comedy","Evening, Night"
B38 Club Milano,Nightclub,Via Messina 38,45.48622623750346,9.173828549307357,59f470b581635b6a63c4191c,small,"dance, music, acting, magic,comedy","Evening, Night"
Tempio Del Futuro Perduto,Cultural Center,Via Luigi Nono 9,45.486494,9.174853,5b2d84a5b6eedb002cf6c74f,large,All,"Day, Evening"
RAM Studios,General Entertainment,Via Luigi Nono 7,45.485344431520424,9.175956054496927,4f218ab0e4b0e2de57dcf539,small,All,"Day, Evening, Night, LateNight"
Evasion Escape Room,General Entertainment,"via Principe Eugenio, 22",45.49001964289591,9.174030248532663,56100960498ebe207b01767c,small,All,"Day, Evening, Night, LateNight"
Dogana Di Milano,Concert Hall,,45.49404905930757,9.177543328830026,559ab18d498ef5a274e88271,large,All,"Day, Evening"
Halloween Party,General Entertainment,"Via Francesco Brioschi, 43",45.443293,9.1811902,4ccde48c063a721e3951979a,small,All,"Day, Evening, Night, LateNight"
la segheria,General Entertainment,Via Meda 24,45.444244384765625,9.17873764038086,516d9aabe4b0d2a1839d241b,small,All,"Day, Evening, Night, LateNight"
Spazio Ctas,Theater,via pomponazzi,45.441961,9.181324,4dc6e49ab0fb5556cd14e782,large,All,"Day, Evening"
Casa del popolo elettronico,Concert Hall,Via tibaldi,45.4443,9.18086,54d206e1498ec1d9d318b2bd,large,All,"Day, Evening"
Teatro Caravaggio,Theater,,45.44390087265475,9.17985551089281,4e0cdad1d4c07c82a2e06c41,large,All,"Day, Evening"
Spazio Eventi la Segheria,Music Venue,via Meda 24,45.443063149939604,9.178897388883687,4ddaa7e87d8b3226643b84b7,small,"Musical Theatre, Music","Day, Evening, Night, LateNight"
La Fabbrica dell'Esperienza,Theater,Via Francesco Brioschi 60,45.441643970971626,9.181580564442697,52ab22b1498e500541a58dc8,large,All,"Day, Evening"
Utopiabāā,Theater,"via Pietro Pomponazzi, 21",45.442142,9.181169,4feb5a6de4b061f7e61dbcd7,large,All,"Day, Evening"
Transito,General Entertainment,Via Pomponazzi 1,45.44156,9.179441,507c66d3e4b0abb0a087c14b,small,All,"Day, Evening, Night, LateNight"
Auditorium di Milano,Performing Arts Venue,Largo Mahler,45.44641956806788,9.179187135864941,4b058881f964a52048ca22e3,large,All,"Day, Evening, Night, LateNight"
CHE studio,Concert Hall,Via Brioschi 24,45.445872,9.180294,510bb3ebe4b01d3ae2438a86,large,All,"Day, Evening"
Rainbow Kids,General Entertainment,,45.447614,9.178723,58637742e386e329a4ba6f65,small,All,"Day, Evening, Night, LateNight"
Marcello Happy B Day Party,General Entertainment,,45.445109,9.181824,4fe8d1f9e4b0f742f957d244,small,All,"Day, Evening, Night, LateNight"
The Beaver Brothers,Nightclub,Corso San Gottardo 42,45.447927102498,9.17921930551529,51309b1de4b0a08cc4156805,small,"dance, music, acting, magic,comedy","Evening, Night"
Boteco Brasileiro,Lounge,"Via Ascanio Sforza, 31",45.449242,9.177497,5782d44c498eb82e0f99117b,small,"dance, music, acting, magic,comedy","Evening, Night"
Baby Farm,General Entertainment,,45.449643,9.17938,5884c93c4bafb72b41512d4e,small,All,"Day, Evening, Night, LateNight"
Teatro Cinque,Theater,"Via Cardinale Ascanio Sforza, Milano",45.44866996686411,9.177526526999598,4f942181e4b015eb3e22932f,large,All,"Day, Evening"
DCS IHQ,General Entertainment,,45.450819,9.180252,523d38b611d26840a95d6904,small,All,"Day, Evening, Night, LateNight"
Brasil Samba Music,Music Venue,4 Via Emilio Gola,45.44873468032609,9.177529837829052,4b05887af964a5203fc822e3,small,"Musical Theatre, Music","Day, Evening, Night, LateNight"
villa rahnema,General Entertainment,,45.44958364604114,9.177634266382494,4ffc97dbe4b0be81cf57d83f,small,All,"Day, Evening, Night, LateNight"
Centro Studio Attori,Theater,Via Ascanio Sforza,45.448666,9.177681,4ec2b87bb8f7a3b7f9664245,large,All,"Day, Evening"
#cookebook,General Entertainment,Alzaia Naviglio Pavese 16,45.44997942550607,9.17742450380588,528df010498ea4889bda4238,small,All,"Day, Evening, Night, LateNight"
Corso San Gottardo 15,General Entertainment,,45.450541501030095,9.18025120291015,51717191e4b0128d43fc6c37,small,All,"Day, Evening, Night, LateNight"
Stardust Factory,Music Venue,Corso di Porta Ticinese,45.45456166780915,9.180525541305542,4eb33082a17cab6127e27d31,small,"Musical Theatre, Music","Day, Evening, Night, LateNight"
Carosello - Spot Conad,General Entertainment,Piazza Sant'Eustorgio,45.453733,9.180695,51803acb498e6399de5b9297,small,All,"Day, Evening, Night, LateNight"
What Women Drink,General Entertainment,,45.454588,9.180595,505a0fd2e4b09176b44e75cf,small,All,"Day, Evening, Night, LateNight"
Coppa Cobram: l'inizio.,General Entertainment,,45.45240020751953,9.180150985717773,50558d37e4b09a662dd60614,small,All,"Day, Evening, Night, LateNight"
PianoLink,Concert Hall,,45.45209,9.181939,5713ab15cd103d0071d00c98,large,All,"Day, Evening"
Il Ricovero Delle Anime,Lounge,,45.45160543894912,9.180731869320171,4f4e7c4be4b0577d8200ea0c,small,"dance, music, acting, magic,comedy","Evening, Night"
The Impossible Society,General Entertainment,Corso Porta Ticinese 107,45.453958,9.180462,56771063498e5b59aac9e935,small,All,"Day, Evening, Night, LateNight"
stradina di st. eustorgio,Music Venue,piazza sant'eustorgio,45.453252127403125,9.1810941696167,4f744fb97716f0913c32c01b,small,"Musical Theatre, Music","Day, Evening, Night, LateNight"
iNStradaMI,General Entertainment,via Corsico,45.45280075073242,9.180546760559082,52627bd411d2f438d7290d5f,small,All,"Day, Evening, Night, LateNight"
Bridge Milano,General Entertainment,,45.457728,9.179081,51e2ce8c498e129a746cdd91,small,All,"Day, Evening, Night, LateNight"
Ralph's,Cocktail Bar,Via De Amicis 4,45.457877131392976,9.180914559835625,5176c888e4b0d40cc5610f9a,small,"dance, music, acting, magic,comedy","Evening, Night"
Coquetail,Lounge,,45.456402,9.180796,4c9bb29a9975a143eb8d2bcf,small,"dance, music, acting, magic,comedy","Evening, Night"
Orchestra Sinfonica di Milano Giuseppe Verdi,Opera House,Largo Gustav Mahler,45.457091517793735,9.180868086641373,559dab0b498e78a87b59f130,large,All,"Day, Evening"
Silent Disco,Nightclub,,45.45766,9.181284,5234f061498eda22b043c862,small,"dance, music, acting, magic,comedy","Evening, Night"
Tube Club,Nightclub,Corso di Porta Ticinese 30,45.457973,9.180626,5914a016dd70c523e616d42f,small,"dance, music, acting, magic,comedy","Evening, Night"
Casio G-Shock Beat Event,General Entertainment,,45.456393,9.18073,5170104be4b092fc77ac66eb,small,All,"Day, Evening, Night, LateNight"
Teatro Vetra,Music Venue,,45.457047931737,9.1811780100918,56dbde62498e53f5ff92e7dd,small,"Musical Theatre, Music","Day, Evening, Night, LateNight"
Mono Studio,Music Venue,,45.456538954378324,9.180700028365484,4ca1e53e46978cfafeacbf7f,small,"Musical Theatre, Music","Day, Evening, Night, LateNight"
Via Arena,General Entertainment,Via Arena,45.4550349606864,9.178142817625414,4cefbce57b943704dca73453,small,All,"Day, Evening, Night, LateNight"
Blackout Club Milano,Nightclub,32 Corso di Porta Ticinese,45.458257,9.181057,5bda89a36adbf5002c166861,small,"dance, music, acting, magic,comedy","Evening, Night"
Via Circo 12!,Lounge,,45.4602307,9.1786257,4f95463be4b04c0ca05b4ead,small,"dance, music, acting, magic,comedy","Evening, Night"
Teatro Alle Colonne,Theater,Corso di Porta Ticinese 45,45.45813353499102,9.181432072513749,4d42ac7c90f388bf84254c01,large,All,"Day, Evening"
Il Teatro,General Entertainment,,45.459540126101416,9.180227134351126,4fe57d58e4b0b901afb33c66,small,All,"Day, Evening, Night, LateNight"
Archivio Teatro alla Scala,General Entertainment,,45.460679,9.181993,53a058fc498efdb7c04588c3,small,All,"Day, Evening, Night, LateNight"
Teatro Arsenale,Theater,via Correnti 9,45.45945364684453,9.17993180614841,4c499eb09e3e2d7f89870349,large,All,"Day, Evening"
L' Espace Privé,General Entertainment,Via Del Torchio,45.460474055369446,9.18104315663948,4ee54e3129c220f9728dd7c7,small,All,"Day, Evening, Night, LateNight"
Philipp Plein Casino,Nightclub,,45.45894075554256,9.179742701053323,51c624a0498e32a317388e3b,small,"dance, music, acting, magic,comedy","Evening, Night"
Prina - scuola di musica,General Entertainment,,45.459539,9.181284,5261682f11d256bb9ddb5cac,small,All,"Day, Evening, Night, LateNight"
Scottadito,Lounge,Corso Di Port Ticinese 32,45.458201,9.180956,563e7b9ccd100389c08da7a4,small,"dance, music, acting, magic,comedy","Evening, Night"
HFFA,General Entertainment,,45.461984,9.181866,5076f21ee4b0214d6503d555,small,All,"Day, Evening, Night, LateNight"
Insolito Cinema,General Entertainment,,45.463566,9.179164,51e59563498eef8b5554a3d5,small,All,"Day, Evening, Night, LateNight"
Funlab Workshop,General Entertainment,"Via Gorani, 5 (Cordusio)",45.4645402699803,9.181362390518187,5237ac1b8bbdddd1d132f344,small,All,"Day, Evening, Night, LateNight"
Teatro Litta,Theater,24 Corso Magenta,45.4660034736655,9.177762327176211,4b058880f964a5200eca22e3,large,All,"Day, Evening"
Sala Cavallerizza (teatro Litta),Theater,,45.4656065876566,9.177963877879813,4df513026284fefe8fc7ed35,large,All,"Day, Evening"
Teatro Dal Verme,Theater,"Via San Giovanni sul Muro, 2",45.467104994089404,9.181457550687124,4b058881f964a52082ca22e3,large,All,"Day, Evening"
spazio cairoli,General Entertainment,,45.466335,9.181955,542bb737498e649a567c0cd5,small,All,"Day, Evening, Night, LateNight"
Claustrophobia Milano,General Entertainment,,45.46793,9.178616,56db0d8bcd103f495eb6f007,small,All,"Day, Evening, Night, LateNight"
Forum ANES,Theater,Corso Magenta 24,45.466623,9.1776,4e9e871129c244b4ef236716,large,All,"Day, Evening"
Revolution Dept,General Entertainment,Corso Magenta 7,45.465499,9.179741,5579b55a498e37ac9110975d,small,All,"Day, Evening, Night, LateNight"
whatsapp ina bak,Comedy Club,,45.47003936767578,9.179305076599121,5478a423498e40507020b261,small,Comedy,"Evening, Night"
Babbo Running,General Entertainment,Piazza Castello,45.469360589715954,9.181684699165192,4eeda51be5faa560f172e556,small,All,"Day, Evening, Night, LateNight"
Deejayten Village,General Entertainment,,45.47130103891951,9.177889939484546,52591462498e7ef37dca3d18,small,All,"Day, Evening, Night, LateNight"
"Caccia Al Tesoro "" Scopri Milano Vinci La Spesa""",General Entertainment,Via Beltrami,45.468672,9.181866,50790fa7e4b0c31686e141f6,small,All,"Day, Evening, Night, LateNight"
Roccobarocco Fashion Show,General Entertainment,,45.4700711654863,9.179810608580132,4f4646d2e4b07a6329c876d9,small,All,"Day, Evening, Night, LateNight"
Strasingle,General Entertainment,,45.469267,9.181356,51c6ab4d498ebaa35dd691b2,small,All,"Day, Evening, Night, LateNight"
MilanoBookCity,General Entertainment,,45.46950340238775,9.180639266607884,5467753c498e74d3bc189cdf,small,All,"Day, Evening, Night, LateNight"
Milano Film Festival,General Entertainment,,45.47172396229453,9.178391281555049,55f865f7498e67cfe93029d1,small,All,"Day, Evening, Night, LateNight"
Capodanno Celtico,General Entertainment,,45.471801246185585,9.178569227601749,4ccc6abb72106dcbc6d09b99,small,All,"Day, Evening, Night, LateNight"
PinC Mondiale,General Entertainment,Viale Gerolamo Gadio,45.472109584902924,9.178776741027832,4c164366a9c220a1fc525a9d,small,All,"Day, Evening, Night, LateNight"
Heaven,Nightclub,17 Via Fiori Chiari,45.47303130383103,9.181398795383942,4b05887af964a52052c822e3,small,"dance, music, acting, magic,comedy","Evening, Night"
Piccolo Teatro Strehler,Theater,Largo Antonio Greppi 1,45.47205299587371,9.1821182022893,4b058880f964a5200bca22e3,large,All,"Day, Evening"
Caffè Etiko,Lounge,,45.477615,9.177806,56f1992d498e60b366a93568,small,"dance, music, acting, magic,comedy","Evening, Night"
sforzinda,General Entertainment,,45.4764,9.181,50bb35cde4b0e2256150f051,small,All,"Day, Evening, Night, LateNight"
Slash@MilanoJazzin'Festival,Music Venue,,45.476479,9.177861,4e31bb38fa76634e16c46bab,small,"Musical Theatre, Music","Day, Evening, Night, LateNight"
Bombclub,Nightclub,,45.477856,9.181242,5a18a91b18d43b3a0c467665,small,"dance, music, acting, magic,comedy","Evening, Night"
Cafè Etniko,Lounge,"Via Luigi Canonica, 14",45.477617552532834,9.177530474772652,4b058877f964a5206fc722e3,small,"dance, music, acting, magic,comedy","Evening, Night"
Coccoluto@milano jazzin festival,Jazz Club,,45.47727716125706,9.179819615909395,4e3464906284ea7e10f5133d,small,"Musical Theatre, Music","Day, Evening, Night, LateNight"
Cornetto Summer Of Music Tour Parco Sempione,Rock Club,,45.475376,9.17816,51a0bea4498efd44c84a0c0e,small,"Musical Theatre, Music","Day, Evening, Night, LateNight"
Osteria di Porta Volta,Music Venue,14 Viale Montello,45.480126,9.179174,4b05887af964a52067c822e3,small,"Musical Theatre, Music","Day, Evening, Night, LateNight"
Ghetto YiLmazZ,General Entertainment,,45.478904,9.18084,50ceaa24e4b0ed7c4714294f,small,All,"Day, Evening, Night, LateNight"
Reparto Cinema,General Entertainment,Via Niccolini 2,45.47920067463969,9.177647796947983,4d46cdff1911a09366ffeed8,small,All,"Day, Evening, Night, LateNight"
bramante 32,General Entertainment,Via bramante 32,45.481179276968895,9.179801175686226,4fb12595e4b05b8b56c56091,small,All,"Day, Evening, Night, LateNight"
HULU Lounge Bar,Lounge,Via Bramante 9,45.479273,9.179946,5d1d0df76d22da0023ebde62,small,"dance, music, acting, magic,comedy","Evening, Night"
Sarpi 6,General Entertainment,Paolo Sarpi 6,45.4818013219007,9.18008945593715,515deceee4b0944d8bdef989,small,All,"Day, Evening, Night, LateNight"
Film Master Srl,General Entertainment,"Via Carlo Farini, 4",45.48304435973304,9.182228703690091,4e0896d06284d9ee92dc20f8,small,All,"Day, Evening, Night, LateNight"
Avangard Event,Nightclub,Via Paolo Sarpi 6,45.482118,9.179932,515de811e4b020711eb24269,small,"dance, music, acting, magic,comedy","Evening, Night"
Spazio Sarpi6,General Entertainment,Via Paolo Sarpi 6,45.48201646292328,9.180068665630797,511e7f2fe4b0eaecfc23f35d,small,All,"Day, Evening, Night, LateNight"
indiehub,Music Venue,via bramante,45.48257064819336,9.178019523620605,5247dfbc11d249341302e7dc,small,"Musical Theatre, Music","Day, Evening, Night, LateNight"
Boscaiola 14,Lounge,Via Della Boscaiola 14,45.490139380219595,9.182350914866115,51607784e4b027d8435fa340,small,"dance, music, acting, magic,comedy","Evening, Night"
De Sade,Nightclub,Via Valtellina 21,45.49427262816763,9.18177079562152,4b05887bf964a5206dc822e3,small,"dance, music, acting, magic,comedy","Evening, Night"
Area 21,Nightclub,Via Valtellina 21,45.49426082087351,9.181886768412248,503f885be4b081f565d45d1f,small,"dance, music, acting, magic,comedy","Evening, Night"
Club Haus 80's,Nightclub,"Via Valtellina, 21",45.49429580651459,9.181967046715252,523c800b049301ac0123ee0d,small,"dance, music, acting, magic,comedy","Evening, Night"
Le Cannibale Club,Nightclub,Via Valtellina 23,45.494184209334605,9.182127536286092,55f321f5498e93d5f9faacfd,small,"dance, music, acting, magic,comedy","Evening, Night"
Tibaldi 66,Comedy Club,Viale Tibaldi 66,45.444922125685004,9.185935831731882,4f6bb185e4b0dca2deb7d09f,small,Comedy,"Evening, Night"
Lardo&Bisaccia,General Entertainment,Piazza bibbiena 1,45.44531847046086,9.184904088271505,4d41dac189c3a143aa3df283,small,All,"Day, Evening, Night, LateNight"
Officine cocktail bar,Lounge,Via Giovenale 7,45.44990691233934,9.184522558435186,579b9c5d498ee786362a8bf6,small,"dance, music, acting, magic,comedy","Evening, Night"
Fly Fisher Club,General Entertainment,Piazza Tito Lucrezio Caro 7,45.449406,9.183548,4dd5685fd1647fcf3e1948c7,small,All,"Day, Evening, Night, LateNight"
M.A.C.,Music Venue,Piazza Tito Lucrezio Caro 1,45.44925685595044,9.183019153663677,552eaa0b498e978b40d2deae,small,"Musical Theatre, Music","Day, Evening, Night, LateNight"
Club Curti,Nightclub,,45.448044,9.185908,5c683f87065ef5002c149f00,small,"dance, music, acting, magic,comedy","Evening, Night"
Studi Televisivi Class Editori,General Entertainment,,45.452981786334036,9.18535648534283,4dfa0296b0fb0401c7f6ecf8,small,All,"Day, Evening, Night, LateNight"
Festone Di MLGD,Nightclub,Via Calatafimi,45.453651,9.182939,515efc24e4b0a90e6ce091f2,small,"dance, music, acting, magic,comedy","Evening, Night"
Best.Club.Milan.Is.Our.AudiAllRoad,Music Venue,"Every Cool Place, Every Street, Every Party of Milan",45.452531,9.18681,4eaca594b80323ec921facff,small,"Musical Theatre, Music","Day, Evening, Night, LateNight"
Photo Art,General Entertainment,,45.45147512121384,9.184236778575908,518b6915498e6fdb0065e2dd,small,All,"Day, Evening, Night, LateNight"
PJ House,Lounge,Corso Italia 68,45.452739,9.186276,4d30ce56619f6ea85dd23883,small,"dance, music, acting, magic,comedy","Evening, Night"
Eat.List Milano @ Tip&Coffee,Lounge,Via Wittgens,45.45737355396508,9.183782332831127,4d55b4dcb4deb1f79eb2077a,small,"dance, music, acting, magic,comedy","Evening, Night"
piano terra,Comedy Club,Via Confalonieri 3,45.45705795288086,9.18606185913086,511e9733e4b0e64a2d5cefad,small,Comedy,"Evening, Night"
TOM - The Organic Market,Nightclub,Via Molino Delle Armi 32,45.45674555293393,9.183933223838897,51158e1ce4b0e006a3bdf33c,small,"dance, music, acting, magic,comedy","Evening, Night"
Fondazione Gioventù Musicale d'Italia,General Entertainment,"Via Santa Croce, 20122 Milano",45.45644922768953,9.183366255479461,4f671fd1e4b0e30d22ff0bfb,small,All,"Day, Evening, Night, LateNight"
Flying Circus,Nightclub,Piazza Vetra 21,45.45745666671804,9.183004181528087,4b05887af964a52023c822e3,small,"dance, music, acting, magic,comedy","Evening, Night"
Olympia Milan,Music Venue,,45.4566919,9.1839563,57036b74cd1091aff823759e,small,"Musical Theatre, Music","Day, Evening, Night, LateNight"
Volt,Nightclub,Via Molino delle Armi 16,45.45673673943659,9.184066394853048,5839016c44587f27e93b46da,small,"dance, music, acting, magic,comedy","Evening, Night"
Trekking Italia Amici del Trekking e della Natura,General Entertainment,Via Santa Croce 2,45.456672676704606,9.183182703847661,4faf7d81e4b02f54b87fe89f,small,All,"Day, Evening, Night, LateNight"
Consolle Luke,Nightclub,,45.45657111127816,9.184553982727426,4f5a8c52e4b036906f47cf75,small,"dance, music, acting, magic,comedy","Evening, Night"
Ubi Maior,General Entertainment,Via Crocifisso 18,45.457191,9.185419,4da753a7cda1480291cdbe0c,small,All,"Day, Evening, Night, LateNight"
Glamour Life,Coffee Shop,Via Wittgens 1,45.4577166204826,9.18397507888729,4e8ea445f5b90ec6782268d4,small,"dance, music, acting, magic,comedy","Day, Evening, Night, LateNight"
teatro philipp plein milano,Theater,Via San Vito 5,45.45900999197705,9.182326274568998,505e40bbe4b008a519638514,large,All,"Day, Evening"
Mini Artfactory,General Entertainment,via gaudenzio ferrari,45.45820373887529,9.184257683033122,4e99cc54cc215f3adc8832f2,small,All,"Day, Evening, Night, LateNight"
Teatro Vetra Milano,General Entertainment,,45.45924566737418,9.182531324419646,54ecdeb2498e12a95dcb3e73,small,All,"Day, Evening, Night, LateNight"
Folder Theatre Company,Theater,Via disciplini 12,45.458282,9.18539,4ce2faf1910ea1cd0a32737b,large,All,"Day, Evening"
Sala Delle Colonne Image Building,General Entertainment,,45.460315,9.183302,509b97b3e4b04527ff44de1e,small,All,"Day, Evening, Night, LateNight"
#MINI Paceman Loft,General Entertainment,,45.46169869567301,9.185700763987667,513221ece4b0dc200b3b7411,small,All,"Day, Evening, Night, LateNight"
Kinect For Xbox 360 Experience Truck,General Entertainment,,45.461566,9.185771,4e745e94d22d80eb32b64a7d,small,All,"Day, Evening, Night, LateNight"
Accademia del Teatro alla Scala,General Entertainment,,45.461900736477325,9.182410061114034,4eea1d394901326b61766bd3,small,All,"Day, Evening, Night, LateNight"
Cinema Centrale Multisala,Movie Theater,Via Torino 30/32,45.4620465685442,9.185953205378686,4b058880f964a5202aca22e3,large,"dance, music, acting, magic,comedy","Evening, Night"
Bubbles,Lounge,,45.463207,9.186017,562a7bf5498e154e03385a66,small,"dance, music, acting, magic,comedy","Evening, Night"
Sala Stampa Milano,General Entertainment,"Via Cordusio, 4",45.46481870986511,9.185210526205719,4bcd70abb6c49c74915e9591,small,All,"Day, Evening, Night, LateNight"
Absolut İce Bar Milano,Nightclub,,45.46250202827855,9.186603127669958,50315bfbe4b0c518269ce255,small,"dance, music, acting, magic,comedy","Evening, Night"
Società Milanese per la Caccia a Cavallo,General Entertainment,Piazza Sant'Alessandro 6,45.46153644826204,9.185790028157227,4ce4084870236a31f334cc63,small,All,"Day, Evening, Night, LateNight"
Creative Team @Mind Agency,General Entertainment,piazza San Sepolcro 1,45.461553,9.185813,4e6721c5e4cdfdecb029e7c1,small,All,"Day, Evening, Night, LateNight"
Beautiful Information,General Entertainment,Via Dante,45.46654112716925,9.184588840497817,53186c6411d2e09af092a4a2,small,All,"Day, Evening, Night, LateNight"
Le Banque,Nightclub,Via Bassano Porrone 6,45.46612,9.18679,4d8d4700d00a6ea84af39e4f,small,"dance, music, acting, magic,comedy","Evening, Night"
#broletto39,Nightclub,,45.468157767935246,9.184839902678844,51b8c93f498e269185923bd1,small,"dance, music, acting, magic,comedy","Evening, Night"
Chiostro Nina Vinchi,General Entertainment,Via Rovello 2,45.466771,9.185107,52984d06498ef27b0fe34872,small,All,"Day, Evening, Night, LateNight"
Garden Gallery,Nightclub,3 Via Meravigli,45.46606917736227,9.184805818102229,4b05887af964a52064c822e3,small,"dance, music, acting, magic,comedy","Evening, Night"
Candy Bar,General Entertainment,Via Bassano Porrone 6,45.46615703642089,9.18706225807581,4f528678e4b0ddd8f72e6204,small,All,"Day, Evening, Night, LateNight"
Auditorium Agliardi,Concert Hall,,45.466474,9.18243,4fa85822e4b07e184789d66c,large,All,"Day, Evening"
Sionis,Lounge,Via Giulini 5,45.46704757184277,9.183945152424139,4d0518f6347da1cd48372f8f,small,"dance, music, acting, magic,comedy","Evening, Night"
M.I.B,Nightclub,Via Gaetano Negri 10,45.46532306665447,9.183467007739173,4e751e79b0fb9680330f519d,small,"dance, music, acting, magic,comedy","Evening, Night"
Piccolo Teatro Grassi,Theater,"Via Rovello, 2",45.466605165108234,9.184682428336306,4c7cc837aa3ba093039bab74,large,All,"Day, Evening"
The Future In The Making,General Entertainment,,45.46633464825386,9.185881131382144,4f8daa47e4b0194668d37620,small,All,"Day, Evening, Night, LateNight"
Goodbye Pernice Day,Nightclub,Piazza Affari,45.465235857345654,9.183126139127497,4ef0b6998b81e3067f8021cb,small,"dance, music, acting, magic,comedy","Evening, Night"
TEDxMilano,Theater,Via Rovello 2,45.466652,9.184875,51a9b3b7498ed257cdfc51b0,large,All,"Day, Evening"
Via Bergognone 59,Concert Hall,,45.46765229689066,9.183003417147365,52400bcb11d23b2c5bf1aa45,large,All,"Day, Evening"
Spazio Dante,General Entertainment,,45.46744886095588,9.183737,4bfac5ca328d76b095f114ec,small,All,"Day, Evening, Night, LateNight"
Festival Mix Milano,General Entertainment,Largo Greppi 1,45.46669604817659,9.184682965278625,51c039217dd2bfd21ec17db2,small,All,"Day, Evening, Night, LateNight"
Arci Ohibò,Music Venue,,45.4654219,9.1859243,59bf77e5fd9d73213eeae7b8,small,"Musical Theatre, Music","Day, Evening, Night, LateNight"
Manfredo Lounge Bar,Lounge,,45.466595,9.182984,582ef07aae97566eff6eca54,small,"dance, music, acting, magic,comedy","Evening, Night"
Charro Cafè,Nightclub,7-9 Via Santa Maria Segreta,45.4650697417354,9.18460767505819,4b05887af964a5204cc822e3,small,"dance, music, acting, magic,comedy","Evening, Night"
Circo Massimo,Nightclub,Milano,45.46570587158203,9.185258865356445,55fc8ce5498eb3a5d5123c7b,small,"dance, music, acting, magic,comedy","Evening, Night"
Trottoir (Le),Nightclub,2 Via Tivoli,45.471117,9.184165,4b05887af964a5202dc822e3,small,"dance, music, acting, magic,comedy","Evening, Night"
Pied-á-terre Narra,Nightclub,Via ponte vetero 11,45.46966057883495,9.185037016868591,56a93b7f498ec4b2409d3aba,small,"dance, music, acting, magic,comedy","Evening, Night"
Brera Outdoor Village,General Entertainment,,45.468330283791886,9.18540066860808,4f91b2e0e4b048074fad0e76,small,All,"Day, Evening, Night, LateNight"
NAPKIN,Lounge,,45.47055215300393,9.18490024620364,4ecbbd7e722efb00f89f42e3,small,"dance, music, acting, magic,comedy","Evening, Night"
Scuola Musicale Di Milano,Music Venue,Via della Commenda 5,45.47061400479072,9.183250300115986,5234784811d2e5a53e4750dd,small,"Musical Theatre, Music","Day, Evening, Night, LateNight"
Slava Snow show,Theater,,45.470708,9.184191,4ca4d6d6750ca09352e02467,large,All,"Day, Evening"
Brera Garden Floor,Lounge,Via dell'Orso 7,45.468972286356156,9.186906239054666,4fabca9fe4b0d040d89222fb,small,"dance, music, acting, magic,comedy","Evening, Night"
heartspace,General Entertainment,,45.46893855814009,9.186308292585718,4f68c059e4b053c5171229b4,small,All,"Day, Evening, Night, LateNight"
Circolo Di Presidio Dell' Esercito Di Milano,General Entertainment,"Via Brera, 15",45.47045290917767,9.186566824201023,51d5bd2e498e1be2d7e0ef2c,small,All,"Day, Evening, Night, LateNight"
CLICQ-NIC DESIGNSTORE,General Entertainment,Via Ponte Vetero 13,45.469536432836414,9.185171127319336,4f83ee444fc6e38b2cc9d6d8,small,All,"Day, Evening, Night, LateNight"
Leo Burnett Theater of Imagination,Theater,Foro Buonaparte 22,45.47142604832328,9.183607522910846,4cf76fa60a71224b70792393,large,All,"Day, Evening"
MostraMI,General Entertainment,Corso Garibaldi 27,45.4730333619218,9.183668692564362,4fcb619de4b0b278fb4ae094,small,All,"Day, Evening, Night, LateNight"
Mix Festival,General Entertainment,,45.4721809770997,9.18261567509247,4de12c3d18380dc4dd42519b,small,All,"Day, Evening, Night, LateNight"
The Kids Road,General Entertainment,via Palermo 1,45.474873955847414,9.186247699150346,4f6af6d0e4b07199a8cdb67d,small,All,"Day, Evening, Night, LateNight"
Kia Lounge,Lounge,Corso garibaldi,45.474584,9.183367,4ddbf39d22719ef54b557bd1,small,"dance, music, acting, magic,comedy","Evening, Night"
Temporary Store Opel Adam,General Entertainment,Corso Garibaldi 51A,45.473574675032665,9.183684497869892,515be003e4b04ff76807ba67,small,All,"Day, Evening, Night, LateNight"
CAM Falcone E Borsellino,Music Venue,Corso Garibaldi 27,45.47306707873794,9.183423662312963,513b6547e4b0e8ef7e717575,small,"Musical Theatre, Music","Day, Evening, Night, LateNight"
TheLoft FoxLife,General Entertainment,Via Fiori Chiari,45.47195534956544,9.185577481985092,4df21761922e8e1ea8902f43,small,All,"Day, Evening, Night, LateNight"
Martini POP ART Gallery,General Entertainment,"Corso Garibaldi, 65",45.474824,9.183331,51652e1be4b0c8ebf0145714,small,All,"Day, Evening, Night, LateNight"
Fila Underwear Party,General Entertainment,Via pontaccio 19,45.472302,9.184745,4cb9ca4c7148f04daf57d8ab,small,All,"Day, Evening, Night, LateNight"
Al Teatro,Lounge,corso Garibaldi 16,45.472905193380186,9.183760036852124,4ba5448ff964a520edf338e3,small,"dance, music, acting, magic,comedy","Evening, Night"
Erman's House,Music Venue,,45.471841,9.185938,4bec6b0549430f475fb107d2,small,"Musical Theatre, Music","Day, Evening, Night, LateNight"
Piccolo Teatro Studio Melato,Theater,"Via Rivoli, 6",45.47257028304937,9.182809429757771,4b05887ff964a52001ca22e3,large,All,"Day, Evening"
The Club,Nightclub,"Corso Garibaldi, 97",45.47768290977855,9.184380309544553,4bd23e16462cb7139500dc07,small,"dance, music, acting, magic,comedy","Evening, Night"
Ray Ban Vision Night,Lounge,,45.478108,9.184915,51c34205498e3b8a818e78f7,small,"dance, music, acting, magic,comedy","Evening, Night"
Fidelio Milano Martedì Notte,Nightclub,Corso Garibaldi,45.47753158538594,9.184089243052144,4fa9c0f8e4b04f8c93f8ec1e,small,"dance, music, acting, magic,comedy","Evening, Night"
World Football Show,General Entertainment,Fiera Milano,45.477227,9.185528,4d021b18b82d721e6ba07634,small,All,"Day, Evening, Night, LateNight"
Sky Temporary Store,General Entertainment,,45.477724,9.18437,5668204f498e567aa14aa343,small,All,"Day, Evening, Night, LateNight"
Indian Cafè,Nightclub,97/99 Corso Garibaldi,45.47718714702632,9.18546714404395,4b05887af964a52036c822e3,small,"dance, music, acting, magic,comedy","Evening, Night"
The Tuning Show,General Entertainment,,45.477707,9.184743,50059625e4b0fb593299dfb4,small,All,"Day, Evening, Night, LateNight"
Beige Milano,Wine Bar,Largo la Foppa 5,45.47813616210783,9.184662992736554,4b75d470f964a520cb272ee3,small,"dance, music, acting, magic,comedy","Evening, Night"
le spaiate!,Nightclub,,45.47768020629883,9.185098648071289,518423ca498e370b4576132c,small,"dance, music, acting, magic,comedy","Evening, Night"
PJ's Mansion,Music Venue,,45.477758,9.184327,54b8e63a498e705a5d408c11,small,"Musical Theatre, Music","Day, Evening, Night, LateNight"
18 Solferino,Café,Via Solferino 18,45.47499519292277,9.18687980104923,564cd5c7498e4d4402008e9e,small,"dance, music, acting, magic,comedy","Day, Evening, Night, LateNight"
Biblos,Nightclub,Piazza Coriolano,45.47637671911533,9.184476932836215,505ba6e3e4b00e37992d0072,small,"dance, music, acting, magic,comedy","Evening, Night"
Mostwanted,Nightclub,,45.47747579337116,9.184650375013858,51202b6ee4b002b6ea7d348d,small,"dance, music, acting, magic,comedy","Evening, Night"
Ex grazia neri,General Entertainment,,45.48163,9.18455,4e7e4e1cdab427fd1761dc2a,small,All,"Day, Evening, Night, LateNight"
Convento,Nightclub,Corso Garibaldi,45.479960002901095,9.185937992337479,4ee5d8bfb634710b8c391ed7,small,"dance, music, acting, magic,comedy","Evening, Night"
King Room,Nightclub,"Piazza XXV Aprile, 11",45.480731,9.186461,5c2b00506dcf04002c1f2cbc,small,"dance, music, acting, magic,comedy","Evening, Night"
Picnicing,Lounge,,45.478898,9.184241,4e857f2493ad386410581278,small,"dance, music, acting, magic,comedy","Evening, Night"
The Timberland Studio,Shoe Store,9 Piazza 25 Aprile,45.48109,9.186693,5bccf6a2d0a149002d8a11e8,,,
HP Human Discount 12,General Entertainment,Cadorna,45.479415599999996,9.1845055,4db1b043432d3c2e968edb00,small,All,"Day, Evening, Night, LateNight"
Bambù Lounge,Cocktail Bar,"Via F. Crispi, 3",45.48079966166562,9.185473051436976,4bf30b1f6a31d13a2533942e,small,"dance, music, acting, magic,comedy","Evening, Night"
70's,Nightclub,Viale Pasubio,45.481632,9.184558,51914b9e498ef3221503303c,small,"dance, music, acting, magic,comedy","Evening, Night"
esterni,General Entertainment,Via Pasubio 14,45.4813913208137,9.184409259429058,4f96d265e4b0efeae8c474f9,small,All,"Day, Evening, Night, LateNight"
Rds Music Marathon,Music Venue,,45.480427,9.187032,5ac9c26d840fc22a3129f178,small,"Musical Theatre, Music","Day, Evening, Night, LateNight"
"Restaurant SmokeONE Lounge Bar + Hookah, Кальян, Shisha, Narghile",Italian Restaurant,Viale Francesco Crispi 6,45.48097928753316,9.185444712638855,5d7166defb02b20008665ac0,small,"dance, music, acting, magic,comedy","Day, Evening, Night, LateNight"
HP Human Discount 10,General Entertainment,Cordusio,45.479113,9.184116,4db1af97432d3c2e968ed5f2,small,All,"Day, Evening, Night, LateNight"
Davai,Lounge,Largo La Foppa,45.48022,9.185687,56588642498eb4078edc6a00,small,"dance, music, acting, magic,comedy","Evening, Night"
Armani prive,Nightclub,,45.48118178190753,9.186279549421632,5047ef9ee4b076625becfe30,small,"dance, music, acting, magic,comedy","Evening, Night"
Golden Haze Studio,Concert Hall,,45.47982066670402,9.184674952214491,520718a411d2cb9324f30f2b,large,All,"Day, Evening"
Sound Pills Studio,Music Venue,Voi Tito Speri 1,45.482908,9.18419,5166c0f5e4b0739f97132541,small,"Musical Theatre, Music","Day, Evening, Night, LateNight"
Cost Restaurant,Lounge,Via Tito Speri 8,45.48264116179254,9.184156627721391,4bb66061ef159c7458da75f7,small,"dance, music, acting, magic,comedy","Evening, Night"
Sunday Inn - Aperitivo,Nightclub,,45.483225990567355,9.185526058249867,526d5e6c11d2d4cc749b063d,small,"dance, music, acting, magic,comedy","Evening, Night"
Hollywood,Nightclub,Corso Como 15,45.482516890745885,9.187043746070152,4b05887af964a52025c822e3,small,"dance, music, acting, magic,comedy","Evening, Night"
Social Channel,Comedy Club,,45.481772,9.186526,50f409a7e4b0232ee59ab8c4,small,Comedy,"Evening, Night"
Pensalobien Cost,Concert Hall,,45.482574704119116,9.184114989438106,5117f550e4b04d760139be76,large,All,"Day, Evening"
Lula,Nightclub,,45.482533,9.186615,517ef1e5e4b0eee6b18f775b,small,"dance, music, acting, magic,comedy","Evening, Night"
Olimpus Post Prod,General Entertainment,Via Varese 10,45.48199681052683,9.185018040550407,4f59d145e4b0a5f21438a5ba,small,All,"Day, Evening, Night, LateNight"
Community Accenture Technology Solutions ATA Hotel,Lounge,,45.482940673828125,9.185275077819824,50c89b9be4b0e3c221d73963,small,"dance, music, acting, magic,comedy","Evening, Night"
Tocqueville 13,Nightclub,Via Alessio di Tocqueville 13,45.482544504151385,9.186395411016372,4b05887af964a5204ac822e3,small,"dance, music, acting, magic,comedy","Evening, Night"
Smoking Kills Club,Nightclub,,45.482483277753055,9.185411574359653,4e7d04f8b8f7ca135d913187,small,"dance, music, acting, magic,comedy","Evening, Night"
The Nani's House,Opera House,Viale Pasubio,45.481962,9.184056,4bae6bc7f964a52031b03be3,large,All,"Day, Evening"
11 clubroom,Nightclub,"Via Alessio di Tocqueville, 11",45.482601046200806,9.186845434876382,53bc6e8b498eb6945fd3b172,small,"dance, music, acting, magic,comedy","Evening, Night"
11 Clubroom,Lounge,"Via Tocqueville, 11",45.48252282062986,9.187032679541364,4bc22ab6abf495218d17c293,small,"dance, music, acting, magic,comedy","Evening, Night"
Globalvideo,General Entertainment,,45.48296769703505,9.183818724359588,4f7eb5d5e4b05b3c3785a603,small,All,"Day, Evening, Night, LateNight"
Alessandro Rosso Group,General Entertainment,Via Tito Speri 8,45.482852,9.185324,5240227111d28dc35243d927,small,All,"Day, Evening, Night, LateNight"
take it easy club,Nightclub,,45.482536603978716,9.18659453926017,54b1ba4d498e3753abdd4b12,small,"dance, music, acting, magic,comedy","Evening, Night"
Loolapaloosa,Nightclub,Corso Como 15,45.48251523775351,9.18707055356871,4b05887af964a5202cc822e3,small,"dance, music, acting, magic,comedy","Evening, Night"
Spaziofarini6,General Entertainment,,45.4819972,9.184992,4eb51a88b8030fb582b52257,small,All,"Day, Evening, Night, LateNight"
Maroncelli 14,General Entertainment,Via Maroncelli 14,45.48325101665037,9.183525209259436,4d3d72d7d625224bd4bd99fa,small,All,"Day, Evening, Night, LateNight"
Gasoline Rock Club,Nightclub,Via Privata Nino Bonnet 11A,45.482737464626744,9.18531776030928,4b05887af964a52031c822e3,small,"dance, music, acting, magic,comedy","Evening, Night"
Pasubio16,General Entertainment,Viale Pasubio 16,45.482184,9.182507,4d89b54cd85f3704c5bfecdb,small,All,"Day, Evening, Night, LateNight"
Pineta Club,Nightclub,,45.48204507128496,9.184772485367581,4f8b5755e4b00a6263a652cf,small,"dance, music, acting, magic,comedy","Evening, Night"
Planeta De Agostini,General Entertainment,,45.48274775985067,9.184728492343359,54a65881498e9a30913033e4,small,All,"Day, Evening, Night, LateNight"
La Corona Latin Club,Nightclub,Via Valleambrosiana 5,45.482511089830574,9.186967472933132,53150d41498e915368e8ed99,small,"dance, music, acting, magic,comedy","Evening, Night"
Fashion Rio,Nightclub,Via Giuseppe Ferrari,45.485083762771396,9.183957251366857,4dd8532ac65bee535ac97b63,small,"dance, music, acting, magic,comedy","Evening, Night"
Soundpills Studio,Concert Hall,,45.482209,9.18398,52e934ac498ec89732972141,large,All,"Day, Evening"
Tony Guy - Elleven,General Entertainment,,45.482512322359334,9.186780122290745,508d9836e4b0f38c01bf74ad,small,All,"Day, Evening, Night, LateNight"
Pastrengo,Comedy Club,via pastrengo 12,45.48681638000001,9.186635,4cd157b401eaf04de5abbd5d,small,Comedy,"Evening, Night"
Spazio EscoAdIsola.it,Music Venue,Via Borsieri 41 c/o Nuova Acropoli,45.48583107857135,9.186930656433105,52128ef393cdf80456056675,small,"Musical Theatre, Music","Day, Evening, Night, LateNight"
casa della festa stef & cat,Lounge,,45.4869,9.186422,568c05b5498ec3ce21b0020d,small,"dance, music, acting, magic,comedy","Evening, Night"
Koro,Wine Bar,Via Pastrengo 16/18,45.48670440261508,9.185697721049667,52db1219498e40890df4148e,small,"dance, music, acting, magic,comedy","Evening, Night"
Teatro Verdi,Theater,Via Pastrengo 16,45.486786013441254,9.185906314210118,4d028794347da1cd80e71f8f,large,All,"Day, Evening"
Messapika,Lounge,Via Alserio 3,45.491462,9.184598,52d9c799498e3c89e8e368f4,small,"dance, music, acting, magic,comedy","Evening, Night"
Life Club,Nightclub,Via Alserio 5,45.49103748278377,9.185814083040746,4cb85ae64352a1cd04d484f5,small,"dance, music, acting, magic,comedy","Evening, Night"
Small Cafè,Nightclub,via carlo farini,45.491295673106684,9.184354207424475,4d2dc9efcde68eec3746ca98,small,"dance, music, acting, magic,comedy","Evening, Night"
Razzputin,Music Venue,,45.49118018664482,9.184741716267524,4f46b5c1e4b0b0b998259d2a,small,"Musical Theatre, Music","Day, Evening, Night, LateNight"
Boscaiola 14,Lounge,Via Della Boscaiola 14,45.490139380219595,9.182350914866115,51607784e4b027d8435fa340,small,"dance, music, acting, magic,comedy","Evening, Night"
8,Comedy Club,,45.49048802943818,9.182571763313055,4ff5cd76e4b04619c6c2bf35,small,Comedy,"Evening, Night"
Hero Club,Nightclub,Via Al serio,45.491136223094905,9.185916840158832,4effb5309a520dfd66481d4d,small,"dance, music, acting, magic,comedy","Evening, Night"
nıkus!,Lounge,,45.491667,9.186494,4fa30e4de4b08536fee9bc3f,small,"dance, music, acting, magic,comedy","Evening, Night"
The Farm,Nightclub,Via Alserio 5,45.490939127101015,9.185887229274824,5055ca65e4b0c2107500944d,small,"dance, music, acting, magic,comedy","Evening, Night"
nipponya,General Entertainment,Via Medardo Rosso 16,45.490268785079785,9.184720516204834,4dea42e61f6e3ddebdc68471,small,All,"Day, Evening, Night, LateNight"
Wanasah Narghile Caffe,Lounge,Porta Garibaldi,45.489427,9.183154,58862f2c561ded7f9091b5e5,small,"dance, music, acting, magic,comedy","Evening, Night"
appAlserio,Lounge,Via Alserio 1,45.491697,9.184556,509f92ede4b0cfcd3ab71be8,small,"dance, music, acting, magic,comedy","Evening, Night"
Alcatraz,Nightclub,Via Valtellina 25,45.494665244289216,9.182984056609108,4b05887af964a52037c822e3,small,"dance, music, acting, magic,comedy","Evening, Night"
Punto Flamenco,General Entertainment,Via Farini,45.49330428314149,9.184808423716307,5131eb58e4b0d576bf097a86,small,All,"Day, Evening, Night, LateNight"
ClubHaus80's & MTV party,Nightclub,,45.494449,9.182896,4f947323e4b04b1ee2ec0bd6,small,"dance, music, acting, magic,comedy","Evening, Night"
Gate Milano,Nightclub,Via Valtellina 21,45.4943,9.182405,5c0c58ab475abd002c1ac473,small,"dance, music, acting, magic,comedy","Evening, Night"
TILT Headquarter,Music Venue,Viale Stelvio 53,45.49457323922653,9.18436268009995,4de57acdd4c09fc98b6972ca,small,"Musical Theatre, Music","Day, Evening, Night, LateNight"
Just This 005/ SETH TROXLER,Nightclub,"Via dei Fontanili, 2-20",45.4420284,9.188871,4d3a28d381258cfa1302a35f,small,"dance, music, acting, magic,comedy","Evening, Night"
circolo PD Open Bocconi,General Entertainment,,45.441882987692736,9.191165106062206,5536a547498eda0c11ce3b6b,small,All,"Day, Evening, Night, LateNight"
Centro Sportivo Bazzi,General Entertainment,,45.4431106551668,9.187219047133254,4eabbf9293ad72a2dafa55d0,small,All,"Day, Evening, Night, LateNight"
Bocciodromo Morivione,Italian Restaurant,via Bernardino Verro 2,45.442303118942014,9.188138463400154,4bd02d169854d13a5033f74d,small,"dance, music, acting, magic,comedy","Day, Evening, Night, LateNight"
Club 2.0,Music Venue,,45.445852,9.187825,52880f2411d2158e23c66694,small,"Musical Theatre, Music","Day, Evening, Night, LateNight"
Vermù,Lounge,,45.45093453218647,9.191309929118955,56df11bc498efe32fa38780c,small,"dance, music, acting, magic,comedy","Evening, Night"
B Students TV,General Entertainment,Via Bocconi 12,45.44987875697494,9.188734344253124,4d7f2997d4ef6a318c13703c,small,All,"Day, Evening, Night, LateNight"
Radio Bocconi,Radio Station,Via Ferdinando Bocconi 12,45.44987155684339,9.188703597812149,4be3e19a21d5a59398221a11,small,"dance, music, acting, magic,comedy","Day, Evening"
biliardino privato,General Entertainment,,45.449012683595896,9.188140082582704,4f955fc8e4b0532d5f1be47d,small,All,"Day, Evening, Night, LateNight"
Working Capital - PNI @ Milano,General Entertainment,Via Ulisse Gobbi 5,45.44930827031937,9.189237356185913,4e9bfdeee5e8dffcaefff6a5,small,All,"Day, Evening, Night, LateNight"
yoga Terapeutico,General Entertainment,,45.45011520385742,9.190553665161133,4f9bb420e4b020e60f2abdc2,small,All,"Day, Evening, Night, LateNight"
Canazza,General Entertainment,,45.4520258,9.1899813,4e7a4e9062e16841da405a43,small,All,"Day, Evening, Night, LateNight"
Venti136,Lounge,"Via Röntgen, 2a",45.45168932769317,9.187481727832038,4dcba37ab0fbd92b293b976f,small,"dance, music, acting, magic,comedy","Evening, Night"
Dirk Bikkembergs Fashion Show,General Entertainment,"Corso Italia, 58",45.4542743,9.1877865,4dfeee87a809baedbd900a87,small,All,"Day, Evening, Night, LateNight"
Amici landis,General Entertainment,PiazzA Duomo,45.457816,9.187662,508a834fe4b09bdc35bf8ce9,small,All,"Day, Evening, Night, LateNight"
Musica Maestro,Nightclub,Via Emanuelandia,45.45784807325108,9.18796877753092,508a862fe4b00ac3c643d667,small,"dance, music, acting, magic,comedy","Evening, Night"
#TheOriginOfLove Album Release Party,General Entertainment,,45.457183,9.187822,505cc68ae4b0e4ac14c0a7f3,small,All,"Day, Evening, Night, LateNight"
Duke Lounge,Lounge,Via Albricci 3,45.460963,9.189248,4bd81ad4e914a593256b52fa,small,"dance, music, acting, magic,comedy","Evening, Night"
Dellabellix's Terrace,Nightclub,,45.459924,9.189206,4fabf74fe4b00ae4ab678284,small,"dance, music, acting, magic,comedy","Evening, Night"
Centro Culturale Di Milano,General Entertainment,Via zebedia 2,45.46084333833416,9.18787657933863,4cc83b5efa03224b491e43ef,small,All,"Day, Evening, Night, LateNight"
Mondadori,General Entertainment,Duomo,45.46085377553423,9.19018654408704,508a80d7e4b0f6951d2dbde0,small,All,"Day, Evening, Night, LateNight"
Terrazza dei Cavalieri Milano,Cocktail Bar,piazza Giuseppe Missori 1,45.460777827006694,9.188657946597298,4dd58c27d1647fcf3e1cad8e,small,"dance, music, acting, magic,comedy","Evening, Night"
UEFA Champions League Trophy Tour,General Entertainment,Duomo,45.46456686377893,9.18900301399626,50538074e4b0ff6b6122c792,small,All,"Day, Evening, Night, LateNight"
King Club,Nightclub,Via Maurizio Gonzaga 5,45.461559107744336,9.18908991950457,5666c6a5498e8f949ada5115,small,"dance, music, acting, magic,comedy","Evening, Night"
Benattico,Lounge,,45.4636780400517,9.187895410819202,4f8ce53ce4b00c10ebc61d5b,small,"dance, music, acting, magic,comedy","Evening, Night"
Terrazza Duomo 21,Lounge,Piazza del Duomo 21,45.46480592131439,9.189664295388004,55286cfa498e15f96df0088d,small,"dance, music, acting, magic,comedy","Evening, Night"
Shiling's Milano,Nightclub,Via Paolo da Cannobio 2 Milan,45.462012982021626,9.190953914066743,52e4367311d22d84e9e07abd,small,"dance, music, acting, magic,comedy","Evening, Night"
Pitbull,Lounge,Corso Como 11,45.463405,9.191771,5d5ae4c37474790007e1e543,small,"dance, music, acting, magic,comedy","Evening, Night"
MI AMI Festival,Music Venue,,45.4642035,9.189982,5ac333d47269fe2798803051,small,"Musical Theatre, Music","Day, Evening, Night, LateNight"
Olio Officina Food Festival,General Entertainment,"Piazza del Duomo, Piazza Duomo, 20122 Milano",45.4643918021958,9.188638496028892,4f256fa2e4b047657ab384f7,small,All,"Day, Evening, Night, LateNight"
Mostra Il Vero e il Falso,General Entertainment,Palazzo Reale,45.463039088129975,9.190683379047796,512113bae4b06dc363dcae35,small,All,"Day, Evening, Night, LateNight"
Creativa&MotivaMente,General Entertainment,via Vigliani 19,45.46427,9.189510000000013,533032ad498e781e7409440f,small,All,"Day, Evening, Night, LateNight"
Vuota Bavaria,General Entertainment,Milano,45.46405868871676,9.189419746398924,51150776d86c8121735dcbd4,small,All,"Day, Evening, Night, LateNight"
Venus,General Entertainment,Milano,45.46271,9.189663,5639073dcd10008abd4b0fcb,small,All,"Day, Evening, Night, LateNight"
Palazzo Giureconsulti,General Entertainment,P.zza dei Mercanti 2,45.46465472908776,9.188441547213841,5133687be4b03f29a2f45217,small,All,"Day, Evening, Night, LateNight"
Time Club,Nightclub,,45.462465,9.190045,5e4f54a72b631a0008732e46,small,"dance, music, acting, magic,comedy","Evening, Night"
Nepentha Club,Nightclub,Piazza Armando Diaz 1,45.46257831531792,9.190379949096862,4bc7694d6501c9b6b8613e29,small,"dance, music, acting, magic,comedy","Evening, Night"
George Gershmann,Concert Hall,Piazza Del Duomo,45.464484,9.190418,51aa4d66498e09d847f51c04,large,All,"Day, Evening"
Shot Cafè,Nightclub,11 Via Paolo Da Cannobbio,45.46237321950382,9.190661220268515,4b05887af964a5204ec822e3,small,"dance, music, acting, magic,comedy","Evening, Night"
Biglietteria MITO SettembreMusica,General Entertainment,Via Dogana 2,45.46332878427158,9.189237356185913,4fdf9d357bebe39bd888e156,small,All,"Day, Evening, Night, LateNight"
Concerto Per Milano - Filarmonica Della Scala e Martha Argerich,Concert Hall,Piazza Del Duomo,45.463966,9.190293,575da478498e2b7bcc2daaeb,large,All,"Day, Evening"
Milano A Memoria,Library,Piazza Diaz 7,45.461666711521815,9.189937865007897,4eea3a3d2c5bbde21832ce6f,,,
Fencity,General Entertainment,,45.46273431902968,9.18708086013794,55646e5f498e8edc5696dae8,small,All,"Day, Evening, Night, LateNight"
Foca Loca Club,Nightclub,"Via Flavio Baracchini, 11, 20123 Milano",45.461520018745055,9.190834315073484,4f7577ace4b0c0edd5829bf1,small,"dance, music, acting, magic,comedy","Evening, Night"
Top Town,Nightclub,,45.46156276049755,9.19098715905725,4fc9920de4b06737f75b5d70,small,"dance, music, acting, magic,comedy","Evening, Night"
Pussycat,Nightclub,"Via Gonzaga, 5",45.46170201649037,9.189028501587018,4f38476be4b039c3c361d892,small,"dance, music, acting, magic,comedy","Evening, Night"
Nephenta,Nightclub,,45.46260142401504,9.190075446833468,532e2749498e1c3c1769d59f,small,"dance, music, acting, magic,comedy","Evening, Night"
Brazil S/A Lounge Brasileiro de design e decoracao,General Entertainment,,45.46481325345183,9.18812418799071,4f8c445be4b055d232999f40,small,All,"Day, Evening, Night, LateNight"
VENUS Night Club Milano,Nightclub,Via G. Giardino 1,45.46265906981794,9.189441204071045,5137f5e98aca9f50d289c211,small,"dance, music, acting, magic,comedy","Evening, Night"
principia,General Entertainment,"Piazza del Duomo, 17",45.464251,9.189003226523923,4da5cca3a86e226c26beceda,small,All,"Day, Evening, Night, LateNight"
Radio Italia Live,Concert Hall,Duomo,45.464343541959025,9.188583130257825,538b8bea498e07706967c011,large,All,"Day, Evening"
Chiamami Ancora Milano,Music Venue,,45.46386600830641,9.189631701552733,4dcd7f0f45ddbe15f8713ab7,small,"Musical Theatre, Music","Day, Evening, Night, LateNight"
